RC	UFI	UNI	LAT	LONG	DMS_LAT	DMS_LONG	MGRS	JOG	FC	DSG	PC	CC1	ADM1	POP	ELEV	CC2	NT	LC	SHORT_FORM	GENERIC	SORT_NAME_RO	FULL_NAME_RO	FULL_NAME_ND_RO	SORT_NAME_RG	FULL_NAME_RG	FULL_NAME_ND_RG	NOTE	MODIFY_DATE	DISPLAY	NAME_RANK	NAME_LINK	TRANSL_CD	NM_MODIFY_DATE	F_EFCTV_DT	F_TERM_DT
3	-3174528	-4483463	26	13	26:00:00N	13:00:00E	33RTJ9981977216	NG33-05	T	DSRT		AG,CD,EG,LY,ML,MR,WI				AG,CD,EG,LY,ML,MR,NG,WI	N				SAHARA	Sahara	Sahara	SAHARA	Sahara	Sahara		2011-04-07	1,2,3,4,5	1			2019-06-05		
3	-473079	-677838	23.622	-3.3938	23:37:19N	3:23:38W	30QVM5983012433	NF30-02	T	TRGD		ML	00			AG,ML	N			Tayert	TAYERTELKAHLA	Tayert el Kahla	Tayert el Kahla	KAHLA TAYERTEL	Kahla, Tayert el	Kahla, Tayert el		2008-01-15	1,2,3,4,5,6,7,8,9	1			2013-02-19		
3	-1064447	9351260	20.266667	2.183333	20:16:00N	2:11:00E	31QDC1471541202	NF31-14	T	HLLS		ML	00			ML	N			Adrar	ADRARAHTES	Adrar Ahtes	Adrar Ahtes	AHTES ADRAR	Ahtes, Adrar	Ahtes, Adrar		2007-04-04	1,2,3,4,5	1			2007-04-04		
3	-1064086	-1579859	21.466667	.5	21:28:00N	0:30:00E	31QBD4093475866	NF31-09	T	ERG		ML	00			ML	N				ERGAITELKHAOUA	’Erg Aït el Khaoua	'Erg Ait el Khaoua	AITELKHAOUA ERG	Aït el Khaoua, ’Erg	Ait el Khaoua, 'Erg		1994-03-29	1,2,3,4,5	1			1993-09-01		
3	-1075940	6760350	16.414427	-5.473344	16:24:52N	5:28:24W	30QTD3585616390	NE30-13	T	DPR		ML	00			ML	N			Chegguet	CHEGGUETTINKERKAZ	Chegguet Ti-n-Kerkâz	Chegguet Ti-n-Kerkaz	TINKERKAZ CHEGGUET	Ti-n-Kerkâz, Chegguet	Ti-n-Kerkaz, Chegguet		2007-09-28	1,2,3,4,5	1			2007-09-28		
3	-1075652	-1596274	16.099932	-5.382712	16:06:00N	5:22:58W	30QTC4513481460	NE30-13	T	DUNE		ML	00			ML	N				TILEMSI	Tîlemsi	Tilemsi	TILEMSI	Tîlemsi	Tilemsi		2007-10-04	1,2,3,4,5	1			2007-10-04		
1	-1068022	10836148	12.305762	-8.948621	12:18:21N	8:56:55W	29PNP0558760365	ND29-15	T	MTS		ML	00			ML	N			Kourou	TYENKOUROU	Tyen Kourou	Tyen Kourou	TYENKOUROU	Tyen Kourou	Tyen Kourou		2008-11-13	1,2,3,4,5				2008-11-13		
3	-488587	6719631	20.065833	2.668889	20:03:57N	2:40:08E	31QDC6537818801	NF31-14	T	HLL		ML	00			ML	N			Adrar	ADRARTEFEDJIT	Adrar Tefedjit	Adrar Tefedjit	TEFEDJIT ADRAR	Tefedjit, Adrar	Tefedjit, Adrar		2007-04-04	1,2,3,4				2007-04-04		
1	10081756	10290470	24.1269	-3.7908	24:07:37N	3:47:27W	30RVM1964468503	NG30-14	T	ERG		ML	00			ML	N			’Erg	ERGTESBEHA	’Erg Tesbeha	'Erg Tesbeha	TESBEHA ERG	Tesbeha, ’Erg	Tesbeha, 'Erg		2008-01-16	1,2,3,4				2008-01-16		
1	10081757	10290471	24.0994	-3.5206	24:05:58N	3:31:14W	30RVM4708965330	NG30-14	T	TRGD		ML	00			ML	N			Tâyert	TAYERTELDJERAF	Tâyert el Djerâf	Tayert el Djeraf	DJERAF TAYERTEL	Djerâf, Tâyert el	Djeraf, Tayert el		2008-01-16	1,2,3,4				2008-01-16		
1	-1064332	-1580240	24.9357	-5.0234	24:56:09N	5:01:24W	30RTN9568659349	NG30-13	T	DUNE		ML	00			ML	N			’Erîgât	ERIGATAOUSSASSIL	’Erîgât Aoussassil	'Erigat Aoussassil	AOUSSASSIL ERIGAT	Aoussassil, ’Erîgât	Aoussassil, 'Erigat		2007-12-12	1,2,3,4,5				2007-12-12		
1	6334656	6546800	23.0851	-2.0126	23:05:06N	2:00:45W	30QXL0113053282	NF30-03	T	ERG		ML	00			ML	N				KHNACHICH	Khnachich	Khnachich	KHNACHICH	Khnachich	Khnachich		2008-01-04	1,2,3,4,5,6,7,8,9				2008-01-04		
1	10085340	10299955	15.2921	1.5231	15:17:32N	1:31:23E	31PCS4142591173	ND31-02	T	HLLS		ML	00			ML	N				CHETOLAKA	Chétolaka	Chetolaka	CHETOLAKA	Chétolaka	Chetolaka		2008-01-30	1,2,3,4	1			2008-01-30		
1	-1398647	10292459	21.4016	-5.5755	21:24:06N	5:34:32W	30QTJ3298768786	NF30-09	T	DUNE		ML	00			ML	N				AKLE	Aklé	Akle	AKLE	Aklé	Akle		2008-01-16	1,2,3,4,5,6,7				2008-01-16		
1	10085351	10300072	15.1883	1.2242	15:11:18N	1:13:27E	31PCS0923079928	ND31-01	T	RDGE		NG	00			ML	N				AKARCHACHA	Akarchacha	Akarchacha	AKARCHACHA	Akarchacha	Akarchacha		2008-01-30	1,2,3,4				2008-01-30		
1	10085369	10300079	15.0737	1.0968	15:04:25N	1:05:48E	31PBS9542967361	ND31-01	T	DUNE		NG	00			ML	N				KOUFEDRAR	Koufédrar	Koufedrar	KOUFEDRAR	Koufédrar	Koufedrar		2008-01-30	1,2,3,4				2008-01-30		
1	9214578	10292489	20.8222	-5.9789	20:49:20N	5:58:44W	30QSJ8993605337	NF30-13	T	DUNE		ML	00			ML	N				HABROUGDOUR	Habr Oû Gdoûr	Habr Ou Gdour	HABROUGDOUR	Habr Oû Gdoûr	Habr Ou Gdour		2008-01-16	1,2,3,4,5,6,7,8,9	1			2008-01-16		
1	-1086660	10255794	15.3443	2.6407	15:20:39N	2:38:27E	31PDS6143596440	ND31-02	T	MESA		NG	00			ML	N			Tondi	TIAPSATONDI	Tiapsa Tondi	Tiapsa Tondi	TIAPSATONDI	Tiapsa Tondi	Tiapsa Tondi		2007-11-29	1,2,3,4,5				2007-11-30		
1	-1068745	10299595	22.4878	-5.5019	22:29:16N	5:30:07W	30QTK4258688972	NF30-05	T	ERG		ML	00			ML	N				IJOUBBANE	Ijoubbâne	Ijoubbane	IJOUBBANE	Ijoubbâne	Ijoubbane		2008-01-29	1,2,3,4,5				2008-01-29		
1	-1072138	-1591195	24.3544	-5.9774	24:21:16N	5:58:39W	30RSM9791096703	NG30-13	T	SCRP		ML	00			ML	N			Kreb	KREBENNAGA	Kreb en Nâga	Kreb en Naga	NAGA KREBEN	Nâga, Kreb en	Naga, Kreb en		2007-12-12	1,2,3,4,5	1			2007-12-12		
1	-1086660	10253265	15.3443	2.6407	15:20:39N	2:38:27E	31PDS6143596440	ND31-02	T	MESA		NG	00			ML	N			Tondi	TIAPSATONDI	Tiapsa Tondi	Tiapsa Tondi	TIAPSATONDI	Tiapsa Tondi	Tiapsa Tondi		2007-11-29	1,2,3,4,5				2007-11-29		
1	10085075	10299574	23.7849	-6.4295	23:47:06N	6:25:46W	29QQG6194132783	NF29-04	T	PLAT		ML	00			ML	N				MAKHOUZ	Makhouz	Makhouz	MAKHOUZ	Makhouz	Makhouz		2008-01-29	1,2,3,4				2008-01-29		
1	10084160	10721181	14.993774	.010905	14:59:38N	0:00:39E	31PAS7851359808	ND31-05	T	HLLS		ML	00			ML	N				TINTAATE	Ti-n-Taaté	Ti-n-Taate	TINTAATE	Ti-n-Taaté	Ti-n-Taate		2008-10-17	1,2,3,4				2008-10-17		
3	-458769	-659585	21.816667	.15	21:49:00N	0:09:00E	31QBE0535515260	NF31-09	T	ERG		AG	34			ML	N			Erg	ERGAMSELSEL	Erg Amselsel	Erg Amselsel	AMSELSEL ERG	Amselsel, Erg	Amselsel, Erg		2011-02-14	1,2,3,4	1			1993-09-01		
3	-1075098	-1595372	22.596058	-1.894397	22:35:46N	1:53:40W	30QXK1364399226	NF30-07	T	DSRT		ML	08			ML	N				TANEZROUFT	Tanezrouft	Tanezrouft	TANEZROUFT	Tanezrouft	Tanezrouft		2012-11-05	1,2,3,4,5,6,7	1			1993-09-01		
3	10386618	10849181	15.031119	-.082665	15:01:52N	0:04:58W	30PZB1370863840	ND30-04	T	HLL		ML	09			ML	N				INAMAROUAN	I-n-Amarouan	I-n-Amarouan	INAMAROUAN	I-n-Amarouan	I-n-Amarouan		2012-10-25	1,2,3,4	1			2008-11-21		
3	-1398829	10299587	23.4053	-6.3918	23:24:19N	6:23:30W	29QQF6655190799	NF29-04	T	ERG		MR	00			ML	N			’Erg	ERGELAOUIKAT	’Erg el Aouikat	'Erg el Aouikat	AOUIKAT ERGEL	Aouikat, ’Erg el	Aouikat, 'Erg el		2008-01-29	1,2,3,4,5	1			2008-09-25		
3	-1401160	10299585	23.529	-6.5068	23:31:44N	6:30:24W	29QQG5455604294	NF29-04	T	ERG		MR	07			ML	N			’Erg	ERGELHACHIYE	’Erg el Hachiyé	'Erg el Hachiye	HACHIYE ERGEL	Hachiyé, ’Erg el	Hachiye, 'Erg el		2008-01-29	1,2,3,4,5				2008-09-25		
3	-1400392	10275011	24.3644	-6.7658	24:21:52N	6:45:57W	29RQG2663796395	NG29-16	T	SCRP		MR	00			ML	N				ELHANK	El Hank	El Hank	ELHANK	El Hank	El Hank		2007-12-13	1,2,3,4,5				2007-12-13		
3	-1398347	10282048	15.8272	-5.4585	15:49:38N	5:27:31W	30PTC3666751363	ND30-01	T	HLLS		MR	00			ML	N			Adrar	ADRARGUEYE	Adrar Guèye	Adrar Gueye	GUEYE ADRAR	Guèye, Adrar	Gueye, Adrar		2008-01-04	1,2,3,4,5,6,7,8,9	1			2008-01-04		
3	-1401237	10299626	22.6485	-6.6121	22:38:55N	6:36:44W	29QQF4539506580	NF29-08	T	DUNE		MR	00			ML	N			’Elb	ELBELHARECH	’Elb el Harech	'Elb el Harech	HARECH ELBEL	Harech, ’Elb el	Harech, 'Elb el		2008-01-29	1,2,3,4,5				2008-01-29		
3	-459053	-659950	22.786389	-6.879444	22:47:11N	6:52:46W	29QQF1769321434	NF29-08	T	PLN		MR	00			ML	N				AOUKAR	Aoukâr	Aoukar	AOUKAR	Aoukâr	Aoukar		2008-01-29	1,2,3,4,5,6,7,8,9				2005-07-11		
3	-464195	-666498	22.802778	-7.271944	22:48:10N	7:16:19W	29QPF7736922724	NF29-08	T	ERG		MR	00			ML	N			’Erg	ERGCHECH	’Erg Chech	'Erg Chech	CHECH ERG	Chech, ’Erg	Chech, 'Erg		2008-01-30	1,2,3,4,5,6,7,8,9				2008-01-30		
3	6331622	6543243	17.617778	4.246389	17:37:04N	4:14:47E	31QFV3223648334	NE31-11	T	MESA		ML,NG				ML,NG	N				INAOUAGHAS	I-n-Aouaghas	I-n-Aouaghas	INAOUAGHAS	I-n-Aouaghas	I-n-Aouaghas		2013-03-05	1,2,3,4	1			2013-03-05		
3	6331635	6543256	17.558889	4.243056	17:33:32N	4:14:35E	31QFV3192541816	NE31-11	T	DUNE		ML,NG				ML,NG	N				ELMAELAKH	Elmaelakh	Elmaelakh	ELMAELAKH	Elmaelakh	Elmaelakh		2013-03-05	1,2,3,4	1			2013-03-05		
3	10341316	10753851	14.582701	-1.557044	14:34:58N	1:33:25W	30PXB5544012665	ND30-07	T	TAL		ML,UV				ML,UV	N				LAGAKOUNDIRI	Laga Koundiri	Laga Koundiri	LAGAKOUNDIRI	Laga Koundiri	Laga Koundiri		2012-11-13	1,2,3,4	1			2012-11-14		
3	-3174528	-4483464	26	13	26:00:00N	13:00:00E	33RTJ9981977216	NG33-05	T	DSRT		AG,CD,EG,LY,ML,MR,WI					V				DESERTODISAHARA	Deserto di Sahara	Deserto di Sahara	SAHARA DESERTODI	Sahara, Deserto di	Sahara, Deserto di		2011-04-07	1,2,3,4,5				1993-09-01		
3	-3174528	-4469992	26	13	26:00:00N	13:00:00E	33RTJ9981977216	NG33-05	T	DSRT		AG,CD,EG,LY,ML,MR,WI					V				GREATDESERT	Great Desert	Great Desert	GREATDESERT	Great Desert	Great Desert		2011-04-07	1,2,3,4,5				1993-09-01		
3	-3174528	-4483499	26	13	26:00:00N	13:00:00E	33RTJ9981977216	NG33-05	T	DSRT		AG,CD,EG,LY,ML,MR,WI					V				SAHRA	Sahra	Sahra	SAHRA	Sahra	Sahra		2011-04-07	1,2,3,4,5				1993-09-01		
3	-3174528	-4483465	26	13	26:00:00N	13:00:00E	33RTJ9981977216	NG33-05	T	DSRT		AG,CD,EG,LY,ML,MR,WI					V				SAHARADESERT	Sahara Desert	Sahara Desert	SAHARADESERT	Sahara Desert	Sahara Desert		2011-04-07	1,2,3,4,5				1993-09-01		
3	10386604	10849167	15.035058	-.764533	15:02:06N	0:45:52W	30PYB4034363420	ND30-04	T	DUNE		ML,UV					N			Séno	SENOTANGABAGUEN	Séno Tangabaguen	Seno Tangabaguen	TANGABAGUEN SENO	Tangabaguen, Séno	Tangabaguen, Seno		2012-10-25	1,2,3,4	1			2008-11-21		
1	-1063923	10292473	20.772648	-4.43787	20:46:22N	4:26:16W	30QUH5032797652	NF30-14	T	ERG		ML	08				N			’Erg	ERGACHAYEF	’Erg Achâyef	'Erg Achayef	ACHAYEF ERG	Achâyef, ’Erg	Achayef, 'Erg		2009-04-07	1,2,3,4,5,6,7	1			2008-01-16		
1	-1063923	-1579614	20.772648	-4.43787	20:46:22N	4:26:16W	30QUH5032797652	NF30-14	T	ERG		ML	08				V				ERGACHAIF	Erg Achaïf	Erg Achaif	ACHAIF ERG	Achaïf, Erg	Achaif, Erg		2009-04-07	1,2,3,4,5,6,7				2008-01-16		
3	-1063923	-1579638	20.772648	-4.43787	20:46:22N	4:26:16W	30QUH5032797652	NF30-14	T	ERG		ML	08				V				ERGACHOUIF	Erg Achouif	Erg Achouif	ACHOUIF ERG	Achouif, Erg	Achouif, Erg		2009-04-07	1,2,3,4,5,6,7				1993-09-01		
1	-1069278	-1587315	20.599236	-4.185176	20:35:57N	4:11:07W	30QUH7649478244	NF30-14	T	ERG		ML	08				N			’Erg	ERGJMEYA	’Erg Jmeya’	'Erg Jmeya'	JMEYA ERG	Jmeya’, ’Erg	Jmeya', 'Erg		2009-04-28	1,2,3,4,5,6,7	1			2008-01-16		
3	-1069278	-1587316	20.599236	-4.185176	20:35:57N	4:11:07W	30QUH7649478244	NF30-14	T	ERG		ML	08				V				DUNEROCHEUSEDEJMEYHAA	Dune Rocheuse de Jmeyhaa	Dune Rocheuse de Jmeyhaa	JMEYHAA DUNEROCHEUSEDE	Jmeyhaa, Dune Rocheuse de	Jmeyhaa, Dune Rocheuse de		2009-04-28	1,2,3,4,5,6,7				1993-09-01		
1	-1064455	-1580456	20.856853	-4.516303	20:51:25N	4:30:59W	30QUJ4224907049	NF30-13	T	ERG		ML	08				N			’Erg	ERGATOUILA	’Erg Atouila	'Erg Atouila	ATOUILA ERG	Atouila, ’Erg	Atouila, 'Erg		2009-04-27	1,2,3,4,5,6,7,8,9	1			2008-01-16		
1	-1064455	-1580464	20.856853	-4.516303	20:51:25N	4:30:59W	30QUJ4224907049	NF30-13	T	ERG		ML	08				V				ERGATWILA	Erg Atwila	Erg Atwila	ATWILA ERG	Atwila, Erg	Atwila, Erg		2009-04-27	1,2,3,4,5,6,7,8,9				2008-01-16		
1	-1064455	10292469	20.856853	-4.516303	20:51:25N	4:30:59W	30QUJ4224907049	NF30-13	T	ERG		ML	08				V				ATOUILA	Atouila	Atouila	ATOUILA	Atouila	Atouila		2009-04-27	1,2,3,4,5,6,7,8,9				2008-01-16		
1	-1064455	10292470	20.856853	-4.516303	20:51:25N	4:30:59W	30QUJ4224907049	NF30-13	T	ERG		ML	08				V				ERIGATATOUILA	Erigat Atouila	Erigat Atouila	ATOUILA ERIGAT	Atouila, Erigat	Atouila, Erigat		2009-04-27	1,2,3,4,5,6,7,8,9				2008-01-16		
1	-1064455	13927901	20.856853	-4.516303	20:51:25N	4:30:59W	30QUJ4224907049	NF30-13	T	ERG		ML	08				V				ERGETTOUILA	Erg et Touila	Erg et Touila	TOUILA ERGET	Touila, Erg et	Touila, Erg et		2009-04-27	1,2,3,4,5,6,7,8,9				2012-09-17		
1	10082280	10292454	20.304622	-4.267972	20:18:17N	4:16:05W	30QUH6761245700	NF30-14	T	HLLS		ML	08				N			Goûr	GOUROULADAHMED	Goûr Oulad Ahmed	Gour Oulad Ahmed	OULADAHMED GOUR	Oulad Ahmed, Goûr	Oulad Ahmed, Gour		2009-04-07	1,2,3,4,5,6,7	1			2008-01-16		
1	10082280	10292476	20.304622	-4.267972	20:18:17N	4:16:05W	30QUH6761245700	NF30-14	T	HLLS		ML	08				V				GOURSOULADAHMED	Gours Oulad Ahmed	Gours Oulad Ahmed	OULADAHMED GOURS	Oulad Ahmed, Gours	Oulad Ahmed, Gours		2009-04-07	1,2,3,4,5,6,7				2008-01-16		
1	10082281	10292455	20.122255	-4.443632	20:07:20N	4:26:37W	30QUH4909325664	NF30-14	T	ERG		ML	08				N			’Erg	ERGLAHMA	’Erg Lahma	'Erg Lahma	LAHMA ERG	Lahma, ’Erg	Lahma, 'Erg		2009-04-07	1,2,3,4,5,6,7	1			2008-01-16		
1	6339425	6554944	20.395196	-4.285853	20:23:43N	4:17:09W	30QUH6582355739	NF30-14	T	ERG		ML	08				N			’Erg	ERGNBEYTELALI	’Erg Nbeyt el Ali	'Erg Nbeyt el Ali	NBEYTELALI ERG	Nbeyt el Ali, ’Erg	Nbeyt el Ali, 'Erg		2009-04-07	1,2,3,4,5,6,7	1			2008-01-16		
1	6339425	10292483	20.395196	-4.285853	20:23:43N	4:17:09W	30QUH6582355739	NF30-14	T	ERG		ML	08				V				ERGABIDELALI	Erg Abid el Ali	Erg Abid el Ali	ABIDELALI ERG	Abid el Ali, Erg	Abid el Ali, Erg		2009-04-07	1,2,3,4,5,6,7				2008-01-16		
1	-1064054	10292471	20.940211	-4.609879	20:56:25N	4:36:36W	30QUJ3260416371	NF30-13	T	ERG		ML	08				N			’Erg	ERGAGOUALIL	’Erg Agoualîl	'Erg Agoualil	AGOUALIL ERG	Agoualîl, ’Erg	Agoualil, 'Erg		2009-04-07	1,2,3,4,5,6,7	1			2008-01-16		
1	-1064054	10292472	20.940211	-4.609879	20:56:25N	4:36:36W	30QUJ3260416371	NF30-13	T	ERG		ML	08				V				AGUELILL	Aguelill	Aguelill	AGUELILL	Aguelill	Aguelill		2009-04-07	1,2,3,4,5,6,7				2008-01-16		
1	-1064054	-1579774	20.940211	-4.609879	20:56:25N	4:36:36W	30QUJ3260416371	NF30-13	T	ERG		ML	08				V				ERGAGLIL	Erg Aglil	Erg Aglil	AGLIL ERG	Aglil, Erg	Aglil, Erg		2009-04-07	1,2,3,4,5,6,7				2008-01-16		
1	-1064054	-1579806	20.940211	-4.609879	20:56:25N	4:36:36W	30QUJ3260416371	NF30-13	T	ERG		ML	08				V				ERGAGUELIL	Erg Aguelil	Erg Aguelil	AGUELIL ERG	Aguelil, Erg	Aguelil, Erg		2009-04-07	1,2,3,4,5,6,7				2008-01-16		
3	-1064054	-1579808	20.940211	-4.609879	20:56:25N	4:36:36W	30QUJ3260416371	NF30-13	T	ERG		ML	08				V				ERGAGUELLIL	Erg Aguellil	Erg Aguellil	AGUELLIL ERG	Aguellil, Erg	Aguellil, Erg		2009-04-07	1,2,3,4,5,6,7				1993-09-01		
3	-1064054	-1579807	20.940211	-4.609879	20:56:25N	4:36:36W	30QUJ3260416371	NF30-13	T	ERG		ML	08				V				ERGAGUELILL	Erg Aguelill	Erg Aguelill	AGUELILL ERG	Aguelill, Erg	Aguelill, Erg		2009-04-07	1,2,3,4,5,6,7				1993-09-01		
1	6334656	10281941	23.0851	-2.0126	23:05:06N	2:00:45W	30QXL0113053282	NF30-03	T	ERG		ML	00			AG	N				ELKRENACHICH	EL Krenachich	EL Krenachich	ELKRENACHICH	EL Krenachich	EL Krenachich		2008-01-04	1,2,3,4,5,6,7,8,9	1			2008-01-04		
3	6334656	14119683	23.0851	-2.0126	23:05:06N	2:00:45W	30QXL0113053282	NF30-03	T	ERG		ML	00				V				ELKHNACHICH	El Khnâchîch	El Khnachich	ELKHNACHICH	El Khnâchîch	El Khnachich		2008-01-04	1,2,3,4,5,6,7,8,9				2013-02-19		
1	-1398647	-2007227	21.4016	-5.5755	21:24:06N	5:34:32W	30QTJ3298768786	NF30-09	T	DUNE		ML	00			MR	N				AKLE	’Aklé	'Akle	AKLE	’Aklé	'Akle		2008-01-16	1,2,3,4,5,6,7	1			2008-01-16		
3	-1072882	-1592241	21.336157	-3.941632	21:20:10N	3:56:30W	30QVJ0235559644	NF30-10	T	HLL		ML	08				V				GARAELOBEICH	Gara el Obeïch	Gara el Obeich	OBEICH GARAEL	Obeïch, Gara el	Obeich, Gara el		2009-11-09	1,2,3,4,5				1993-09-01		
3	-1072882	-1592240	21.336157	-3.941632	21:20:10N	3:56:30W	30QVJ0235559644	NF30-10	T	HLL		ML	08				N	ara		Gara	GARAELOBECH	Gara el Obech	Gara el Obech	OBECH GARAEL	Obech, Gara el	Obech, Gara el		2009-11-09	1,2,3,4,5	1			1993-09-01		
1	-1069003	-1586812	16.902935	-2.066222	16:54:11N	2:03:58W	30QWD9944969053	NE30-15	T	DUNE		ML	08				V				INKAZAZENE	I-n-Kazazene	I-n-Kazazene	INKAZAZENE	I-n-Kazazene	I-n-Kazazene		2009-10-13	1,2,3,4,5				1993-09-01		
1	-1069003	-1586811	16.902935	-2.066222	16:54:11N	2:03:58W	30QWD9944969053	NE30-15	T	DUNE		ML	08				N				INKAZAZEN	I-n-Kazazèn	I-n-Kazazen	INKAZAZEN	I-n-Kazazèn	I-n-Kazazen		2009-10-13	1,2,3,4,5	1			1993-09-01		
1	-1075715	-1586462	16.927924	-2.08587	16:55:41N	2:05:09W	30QWD9734471808	NE30-15	T	DUNE		ML	08				V				INADERDIOUF	In Aderdiouf	In Aderdiouf	INADERDIOUF	In Aderdiouf	In Aderdiouf		2009-10-13	1,2,3,4,5				1993-09-01		
1	-1075715	-1596369	16.927924	-2.08587	16:55:41N	2:05:09W	30QWD9734471808	NE30-15	T	DUNE		ML	08				N				TINADERDYOUF	Ti-n-Adèrdyouf	Ti-n-Aderdyouf	TINADERDYOUF	Ti-n-Adèrdyouf	Ti-n-Aderdyouf		2009-10-13	1,2,3,4,5	1			2009-10-13		
1	-1075715	-1596368	16.927924	-2.08587	16:55:41N	2:05:09W	30QWD9734471808	NE30-15	T	DUNE		ML	08				V				TINADERDIOUF	Ti-n-Aderdiouf	Ti-n-Aderdiouf	TINADERDIOUF	Ti-n-Aderdiouf	Ti-n-Aderdiouf		2009-10-13	1,2,3,4,5				1993-09-01		
1	-1075846	-1596566	16.386031	-2.113983	16:23:10N	2:06:50W	30QWD9461511843	NE30-15	T	DUNE		ML	08				N				TINECHAB	Ti-n-Echab	Ti-n-Echab	TINECHAB	Ti-n-Echab	Ti-n-Echab		2009-10-13	1,2,3,4,5	1			1993-09-01		
1	-1075953	-1596750	16.366297	-2.589769	16:21:59N	2:35:23W	30QWD4381109498	NE30-15	T	DUNE		ML	08				V				TINMEZAZRINE	Ti-n-Mézazrine	Ti-n-Mezazrine	TINMEZAZRINE	Ti-n-Mézazrine	Ti-n-Mezazrine		2009-10-13	1,2,3,4,5				1993-09-01		
1	-1075953	-1596749	16.366297	-2.589769	16:21:59N	2:35:23W	30QWD4381109498	NE30-15	T	DUNE		ML	08				N				TINMEZAZRIN	Ti-n-Mézazrin	Ti-n-Mezazrin	TINMEZAZRIN	Ti-n-Mézazrin	Ti-n-Mezazrin		2009-10-13	1,2,3,4,5	1			1993-09-01		
1	-1071579	-1590394	16.764896	-2.699967	16:45:54N	2:42:00W	30QWD3197653571	NE30-15	T	DUNE		ML	08				N			Alèb	ALEBMAOUN	Alèb Maoun	Aleb Maoun	MAOUN ALEB	Maoun, Alèb	Maoun, Aleb		2009-10-13	1,2,3,4,5	1			1993-09-01		
1	-1075852	-1596573	16.339101	-2.089271	16:20:21N	2:05:21W	30QWD9727806663	NE30-15	T	DUNE		ML	08				N				TINEDAOUAL	Ti-n-Edaoual	Ti-n-Edaoual	TINEDAOUAL	Ti-n-Edaoual	Ti-n-Edaoual		2009-10-13	1,2,3,4,5	1			1993-09-01		
1	-1075877	-1596611	16.501443	-2.248436	16:30:05N	2:14:54W	30QWD8020924553	NE30-15	T	DUNE		ML	08				N				TINENERIN	Ti-n-Enérin	Ti-n-Enerin	TINENERIN	Ti-n-Enérin	Ti-n-Enerin		2009-10-13	1,2,3,4,5	1			1993-09-01		
1	-1075877	-1596612	16.501443	-2.248436	16:30:05N	2:14:54W	30QWD8020924553	NE30-15	T	DUNE		ML	08				V				TINENERINE	Ti-n-Enérine	Ti-n-Enerine	TINENERINE	Ti-n-Enérine	Ti-n-Enerine		2009-10-13	1,2,3,4,5				1993-09-01		
1	-1071049	-1589674	16.317953	-2.114147	16:19:05N	2:06:51W	30QWD9463104312	NE30-15	T	HLL		ML	08				N				KOUTOU	Koutou	Koutou	KOUTOU	Koutou	Koutou		2009-10-13	1,2,3,4,5	1			1993-09-01		
1	-1075869	-1596600	16.981111	-2.135556	16:58:52N	2:08:08W	30QWD9202677668	NE30-15	T	DUNE		ML	08				V				TINELAKA	Tin Elaka	Tin Elaka	TINELAKA	Tin Elaka	Tin Elaka		2009-10-13	1,2,3,4,5				1993-09-01		
1	-1075869	-1596599	16.981111	-2.135556	16:58:52N	2:08:08W	30QWD9202677668	NE30-15	T	DUNE		ML	08				N				TINELAK	Ti-n-Elak	Ti-n-Elak	TINELAK	Ti-n-Elak	Ti-n-Elak		2009-10-13	1,2,3,4,5	1			1993-09-01		
1	6331392	6542991	16.967216	-2.454241	16:58:02N	2:27:15W	30QWD5810376009	NE30-15	T	DUNE		ML	08				N			Alèb	ALEBINEZAKER	Alèb I-n-Ezaker	Aleb I-n-Ezaker	EZAKER ALEBIN	Ezaker, Alèb I-n-	Ezaker, Aleb I-n-		2009-10-13	1,2,3,4	1			1993-09-01		
1	6331393	6542992	16.929437	-2.450724	16:55:46N	2:27:03W	30QWD5848971831	NE30-15	T	DUNE		ML	08				N				INTIMALALIN	I-n-Timalalin	I-n-Timalalin	INTIMALALIN	I-n-Timalalin	I-n-Timalalin		2009-10-13	1,2,3,4	1			1993-09-01		
3	-1064012	-1579744	16.013537	-2.400897	16:00:49N	2:24:03W	30QWC6409670525	NE30-15	T	DUNE		ML	08				N				AGARARA	Agarara	Agarara	AGARARA	Agarara	Agarara		2009-10-13	1,2,3,4,5	1			1993-09-01		
1	-1076085	-1596964	16.967056	-2.052168	16:58:01N	2:03:08W	30QXD0091276154	NE30-15	T	DUNE		ML	08				V				TINTITKOUTINE	Ti-n-Titkoutine	Ti-n-Titkoutine	TINTITKOUTINE	Ti-n-Titkoutine	Ti-n-Titkoutine		2009-10-13	1,2,3,4,5				1993-09-01		
1	-1076085	-1596963	16.967056	-2.052168	16:58:01N	2:03:08W	30QXD0091276154	NE30-15	T	DUNE		ML	08				N				TINTITKOUTIN	Ti-n-Titkoutin	Ti-n-Titkoutin	TINTITKOUTIN	Ti-n-Titkoutin	Ti-n-Titkoutin		2009-10-13	1,2,3,4,5	1			1993-09-01		
1	-1076039	-1596889	16.378288	-2.64124	16:22:42N	2:38:28W	30QWD3831110814	NE30-15	T	DUNE		ML	08				V				TINTAILALI	Ti-n-Taïlali	Ti-n-Tailali	TINTAILALI	Ti-n-Taïlali	Ti-n-Tailali		2009-10-13	1,2,3,4,5				1993-09-01		
1	-1076039	-1596909	16.378288	-2.64124	16:22:42N	2:38:28W	30QWD3831110814	NE30-15	T	DUNE		ML	08				N				TINTAYLALI	Ti-n-Taylali	Ti-n-Taylali	TINTAYLALI	Ti-n-Taylali	Ti-n-Taylali		2009-10-13	1,2,3,4,5	1			1993-09-01		
1	6331394	6542993	16.83667	-2.494451	16:50:12N	2:29:40W	30QWD5385961556	NE30-15	T	DUNE		ML	08				N				TINTABERIM	Ti-n-Tabèrim	Ti-n-Taberim	TINTABERIM	Ti-n-Tabèrim	Ti-n-Taberim		2009-10-13	1,2,3,4	1			1993-09-01		
1	-1071753	-1590625	16.862281	-2.715748	16:51:44N	2:42:57W	30QWD3027964342	NE30-15	T	DUNE		ML	08				N				MBERGUE	Mbergué	Mbergue	MBERGUE	Mbergué	Mbergue		2009-10-13	1,2,3,4,5	1			1993-09-01		
1	6331405	6543004	16.979101	-2.273205	16:58:45N	2:16:24W	30QWD7737377386	NE30-15	T	DUNE		ML	08				N				INSENANDEDENE	I-n-Sénan Dédèné	I-n-Senan Dedene	INSENANDEDENE	I-n-Sénan Dédèné	I-n-Senan Dedene		2009-10-13	1,2,3,4	1			1993-09-01		
1	6331395	6542994	16.890731	-2.376938	16:53:27N	2:22:37W	30QWD6636067572	NE30-15	T	DUNE		ML	08				N				TINKENIOUEN	Ti-n-Kéniouèn	Ti-n-Keniouen	TINKENIOUEN	Ti-n-Kéniouèn	Ti-n-Keniouen		2009-10-13	1,2,3,4	1			1993-09-01		
1	6331406	6543005	16.958165	-2.268995	16:57:29N	2:16:08W	30QWD7783075072	NE30-15	T	TRGD		ML	08				N			Tayert	TAYERTTIBENKAR	Tayert Tibenkar	Tayert Tibenkar	TIBENKAR TAYERT	Tibenkar, Tayert	Tibenkar, Tayert		2009-10-13	1,2,3,4	1			1993-09-01		
1	-1068669	-1586201	16.897233	-2.447113	16:53:50N	2:26:50W	30QWD5888468269	NE30-15	T	DUNE		ML	08				N			Alèb	ALEBHEOUILI	Alèb Heouili	Aleb Heouili	HEOUILI ALEB	Heouili, Alèb	Heouili, Aleb		2009-10-13	1,2,3,4,5	1			1993-09-01		
1	6331396	6542995	16.85684	-2.38628	16:51:25N	2:23:11W	30QWD6537763820	NE30-15	T	DUNE		ML	08				N				TINTATEMIN	Ti-n-Tatemin	Ti-n-Tatemin	TINTATEMIN	Ti-n-Tatemin	Ti-n-Tatemin		2009-10-13	1,2,3,4	1			1993-09-01		
1	6331407	6543006	16.912325	-2.268932	16:54:44N	2:16:08W	30QWD7785570001	NE30-15	T	DUNE		ML	08				N				INGANDOUTEN	I-n-Gandouten	I-n-Gandouten	INGANDOUTEN	I-n-Gandouten	I-n-Gandouten		2009-10-13	1,2,3,4	1			1993-09-01		
1	6331383	6542982	16.840403	-2.833718	16:50:25N	2:50:01W	30QWD1771561907	NE30-15	T	DUNE		ML	08				N				ELKARKARA	El Karkara	El Karkara	ELKARKARA	El Karkara	El Karkara		2009-10-13	1,2,3,4	1			1993-09-01		
1	6331377	6542976	16.724177	-2.288474	16:43:27N	2:17:19W	30QWD7584949178	NE30-15	T	DUNE		ML	08				N				TARHALTDOUDERI	Tarhalt Doudéri	Tarhalt Douderi	TARHALTDOUDERI	Tarhalt Doudéri	Tarhalt Douderi		2009-10-13	1,2,3,4	1			1993-09-01		
1	-1064449	-1580448	16.464947	-2.469184	16:27:54N	2:28:09W	30QWD5666020441	NE30-15	T	DUNE		ML	08				N				ATILEDAKA	Atilé Daka	Atile Daka	ATILEDAKA	Atilé Daka	Atile Daka		2009-10-13	1,2,3,4,5	1			1993-09-01		
1	6331389	6542988	16.853995	-2.599788	16:51:14N	2:35:59W	30QWD4263363447	NE30-15	T	DUNE		ML	08				N				TINFORAKA	Ti-n-Foraka	Ti-n-Foraka	TINFORAKA	Ti-n-Foraka	Ti-n-Foraka		2009-10-13	1,2,3,4	1			1993-09-01		
1	6331366	6542965	16.856158	-2.952491	16:51:22N	2:57:09W	30QWD0506163643	NE30-15	T	DUNE		ML	08				N				MOUSSENINA	Moussénina	Moussenina	MOUSSENINA	Moussénina	Moussenina		2009-10-13	1,2,3,4	1			1993-09-01		
1	-1064043	-1579790	16.809436	-2.914309	16:48:34N	2:54:52W	30QWD0913058476	NE30-15	T	DUNE		ML	08				N				AGOUMAR	Agoumar	Agoumar	AGOUMAR	Agoumar	Agoumar		2009-10-13	1,2,3,4,5	1			1993-09-01		
1	6331374	6542973	16.815997	-2.363934	16:48:58N	2:21:50W	30QWD6777259309	NE30-15	T	DUNE		ML	08				N				TABOLAKET	Tabolakèt	Tabolaket	TABOLAKET	Tabolakèt	Tabolaket		2009-10-13	1,2,3,4	1			1993-09-01		
1	6331386	6542985	16.90602	-2.745908	16:54:22N	2:44:45W	30QWD2706069176	NE30-15	T	DUNE		ML	08				N			Alèb	ALEBAMBERGUEN	Alèb Amberguen	Aleb Amberguen	AMBERGUEN ALEB	Amberguen, Alèb	Amberguen, Aleb		2009-10-13	1,2,3,4	1			1993-09-01		
1	6331390	6542989	16.901215	-2.580807	16:54:04N	2:34:51W	30QWD4464468674	NE30-15	T	DUNE		ML	08				N				TINEBEG	Ti-n-Ebèg	Ti-n-Ebeg	TINEBEG	Ti-n-Ebèg	Ti-n-Ebeg		2009-10-13	1,2,3,4	1			1993-09-01		
1	6331379	6542978	16.68098	-2.412611	16:40:52N	2:24:45W	30QWD6262944356	NE30-15	T	DUNE		ML	08				N				TABORA	Tabora	Tabora	TABORA	Tabora	Tabora		2009-10-13	1,2,3,4	1			1993-09-01		
1	6331401	6543000	16.586196	-2.36758	16:35:10N	2:22:03W	30QWD6746433885	NE30-15	T	DUNE		ML	08				N				TINBAMAREY	Ti-n-Bamarey	Ti-n-Bamarey	TINBAMAREY	Ti-n-Bamarey	Ti-n-Bamarey		2009-10-13	1,2,3,4	1			1993-09-01		
1	6331409	6543008	16.844987	-2.319265	16:50:42N	2:19:09W	30QWD7252062532	NE30-15	T	DUNE		ML	08				N				ERENTEGUEF	Er Entéguèf	Er Enteguef	ERENTEGUEF	Er Entéguèf	Er Enteguef		2009-10-13	1,2,3,4	1			1993-09-01		
1	6331402	6543001	16.43746	-2.427878	16:26:15N	2:25:40W	30QWD6107817412	NE30-15	T	DUNE		ML	08				N				TAMATIKAT	Tamatikat	Tamatikat	TAMATIKAT	Tamatikat	Tamatikat		2009-10-13	1,2,3,4	1			1993-09-01		
1	6331391	6542990	16.959444	-2.596859	16:57:34N	2:35:49W	30QWD4292175113	NE30-15	T	TRGD		ML	08				N			Tayert	TAYERTELBERRIAD	Tayert Elb Er Riad	Tayert Elb Er Riad	ELBERRIAD TAYERT	Elb Er Riad, Tayert	Elb Er Riad, Tayert		2009-10-13	1,2,3,4	1			1993-09-01		
1	6331380	6542979	16.793696	-2.573769	16:47:37N	2:34:26W	30QWD4541956782	NE30-15	T	DUNE		ML	08				N				GASBATEN	Gasbatèn	Gasbaten	GASBATEN	Gasbatèn	Gasbaten		2009-10-13	1,2,3,4	1			1993-09-01		
1	-1064013	-1579745	16.153952	-2.451264	16:09:14N	2:27:05W	30QWC5866686043	NE30-15	T	DUNE		ML	08				N				AGARARA	Agarara	Agarara	AGARARA	Agarara	Agarara		2009-10-13	1,2,3,4,5	1			1993-09-01		
1	6331403	6543002	16.326223	-2.614524	16:19:34N	2:36:52W	30QWD4117505060	NE30-15	T	DUNE		ML	08				N				TINTECHAK	Ti-n-Techak	Ti-n-Techak	TINTECHAK	Ti-n-Techak	Ti-n-Techak		2009-10-13	1,2,3,4	1			1993-09-01		
1	-1064850	-1580999	16.657959	-2.379448	16:39:29N	2:22:46W	30QWD6617341820	NE30-15	T	DUNE		ML	08				N				BANGANA	Bangana	Bangana	BANGANA	Bangana	Bangana		2009-10-13	1,2,3,4,5,6,7,8,9	1			1993-09-01		
1	6331363	6542962	16.930667	-2.880776	16:55:50N	2:52:51W	30QWD1269571889	NE30-15	T	DUNE		ML	08				N				ELARIA	El Aria	El Aria	ELARIA	El Aria	El Aria		2009-10-13	1,2,3,4	1			1993-09-01		
1	6331364	6542963	16.899525	-2.976515	16:53:58N	2:58:35W	30QWD0250168440	NE30-15	T	DUNE		ML	08				N				MAOUDEYICH	Maoudéyich	Maoudeyich	MAOUDEYICH	Maoudéyich	Maoudeyich		2009-10-13	1,2,3,4	1			1993-09-01		
1	6331365	6542964	16.896205	-2.91638	16:53:46N	2:54:59W	30QWD0890668075	NE30-15	T	DUNE		ML	08				N				MOULGUETATI	Moulguétati	Moulguetati	MOULGUETATI	Moulguétati	Moulguetati		2009-10-13	1,2,3,4	1			1993-09-01		
1	10470634	11004779	20.829479	-4.209514	20:49:46N	4:12:34W	30QUJ7414703748	NF30-14	T	ERG		ML	08				N			’Erg	ERGACHAYEF	’Erg Achâyef	'Erg Achayef	ACHAYEF ERG	Achâyef, ’Erg	Achayef, 'Erg		2009-04-27	1,2,3,4	1			2009-04-27		
1	10470635	11004782	20.641724	-4.221953	20:38:30N	4:13:19W	30QUH7269682976	NF30-14	T	ERG		ML	08				N			’Erg	ERGASSEDREM	’Erg Assedrem	'Erg Assedrem	ASSEDREM ERG	Assedrem, ’Erg	Assedrem, 'Erg		2009-04-27	1,2,3,4	1			2009-04-27		
1	6331519	6543119	16.504558	-2.836483	16:30:16N	2:50:11W	30QWD1745024755	NE30-15	T	DUNE		ML	08				N				TIMBOULENTA	Timboulènta	Timboulenta	TIMBOULENTA	Timboulènta	Timboulenta		2009-10-14	1,2,3,4	1			1993-09-01		
1	6331520	6543120	16.520657	-2.772983	16:31:14N	2:46:23W	30QWD2422526543	NE30-15	T	DUNE		ML	08				N				AKARKARA	Akarkara	Akarkara	AKARKARA	Akarkara	Akarkara		2009-10-14	1,2,3,4	1			1993-09-01		
1	6331521	6543121	16.5363	-2.733377	16:32:11N	2:44:00W	30QWD2844928278	NE30-15	T	DUNE		ML	08				N				TIBIA	Tibia	Tibia	TIBIA	Tibia	Tibia		2009-10-14	1,2,3,4	1			1993-09-01		
1	6331522	6543122	16.563222	-2.711222	16:33:48N	2:42:40W	30QWD3080931260	NE30-15	T	DUNE		ML	08				N				ASRAL	Asral	Asral	ASRAL	Asral	Asral		2009-10-14	1,2,3,4	1			1993-09-01		
1	6331531	6543131	16.783947	-2.780372	16:47:02N	2:46:49W	30QWD2340555667	NE30-15	T	DUNE		ML	08				N				EKANKANE	Ekankané	Ekankane	EKANKANE	Ekankané	Ekankane		2009-10-14	1,2,3,4	1			1993-09-01		
1	-1070325	10836155	12.913392	-8.216574	12:54:48N	8:13:00W	29PNQ8498827688	ND29-15	T	HLL		ML	07				N			Kourou	KOLEMADIEGUENEKOULOU	Kolémadiéguéné Koulou	Kolemadieguene Koulou	KOLEMADIEGUENEKOULOU	Kolémadiéguéné Koulou	Kolemadieguene Koulou		2008-11-13	1,2,3,4,5	1			2008-11-13		
1	-1070325	-1588727	12.913392	-8.216574	12:54:48N	8:13:00W	29PNQ8498827688	ND29-15	T	HLL		ML	07				V				KOLEMADYEGUENE	Kolémadyéguéné	Kolemadyeguene	KOLEMADYEGUENE	Kolémadyéguéné	Kolemadyeguene		2008-11-13	1,2,3,4,5				2008-11-13		
3	-1070325	-1588726	12.913392	-8.216574	12:54:48N	8:13:00W	29PNQ8498827688	ND29-15	T	HLL		ML	07				V				KOLEMADYEGENE	Kolémadyégéné	Kolemadyegene	KOLEMADYEGENE	Kolémadyégéné	Kolemadyegene		2008-11-13	1,2,3,4,5				1993-09-01		
1	-1069937	10836144	12.558792	-8.858274	12:33:32N	8:51:30W	29PNP1539688349	ND29-15	T	MESA		ML	07				N			Kourou	KENIELENDOKOUROU	Kéniélèndo Kourou	Kenielendo Kourou	KENIELENDOKOUROU	Kéniélèndo Kourou	Kenielendo Kourou		2008-11-13	1,2,3,4,5	1			2008-11-13		
1	-1069937	-1588224	12.558792	-8.858274	12:33:32N	8:51:30W	29PNP1539688349	ND29-15	T	MESA		ML	07				V				KENYELANDO	Kényélando	Kenyelando	KENYELANDO	Kényélando	Kenyelando		2008-11-13	1,2,3,4,5				2008-11-13		
1	6331416	6543015	16.537878	-2.392517	16:32:16N	2:23:33W	30QWD6482028532	NE30-15	T	DUNE		ML	08				N				FIYEMO	Fiyemo	Fiyemo	FIYEMO	Fiyemo	Fiyemo		2009-10-14	1,2,3,4	1			1993-09-01		
1	6331417	6543016	16.714	-2.046761	16:42:50N	2:02:48W	30QXD0162248160	NE30-15	T	TRGD		ML	08				N			Tayert	TAYERTKAOUALAT	Tayert Kaoualat	Tayert Kaoualat	KAOUALAT TAYERT	Kaoualat, Tayert	Kaoualat, Tayert		2009-10-14	1,2,3,4	1			1993-09-01		
1	6331418	6543017	16.666544	-2.099972	16:40:00N	2:06:00W	30QWD9597342883	NE30-15	T	DUNE		ML	08				N				TICHOREY	Tichorèy	Tichorey	TICHOREY	Tichorèy	Tichorey		2009-10-14	1,2,3,4	1			1993-09-01		
1	6331420	6543019	16.628165	-2.032391	16:37:41N	2:01:57W	30QXD0320138671	NE30-15	T	DUNE		ML	08				N				TINELOULA	Ti-n-Eloula	Ti-n-Eloula	TINELOULA	Ti-n-Eloula	Ti-n-Eloula		2009-10-14	1,2,3,4	1			1993-09-01		
1	6331422	6543021	16.536045	-2.04287	16:32:10N	2:02:34W	30QXD0213128474	NE30-15	T	DUNE		ML	08				N				TINTOROS	Ti-n-Toros	Ti-n-Toros	TINTOROS	Ti-n-Toros	Ti-n-Toros		2009-10-14	1,2,3,4	1			1993-09-01		
1	6331423	6543022	16.50049	-2.019212	16:30:02N	2:01:09W	30QXD0467524553	NE30-15	T	DUNE		ML	08				V				TINAGAYDAAN	Ti-n-Agaydaan	Ti-n-Agaydaan	TINAGAYDAAN	Ti-n-Agaydaan	Ti-n-Agaydaan		2009-10-14	1,2,3,4				2009-10-14		
1	6331423	11271018	16.50049	-2.019212	16:30:02N	2:01:09W	30QXD0467524553	NE30-15	T	DUNE		ML	08				N				TINAGARDAAN	Ti-n-Agardaan	Ti-n-Agardaan	TINAGARDAAN	Ti-n-Agardaan	Ti-n-Agardaan		2009-10-14	1,2,3,4	1			2009-10-14		
1	6331424	6543023	16.45787	-2.007481	16:27:28N	2:00:27W	30QXD0595019843	NE30-15	T	HLL		ML	08				V				BARNA	Barna	Barna	BARNA	Barna	Barna		2009-10-14	1,2,3,4				2009-10-14		
1	6331424	11271019	16.45787	-2.007481	16:27:28N	2:00:27W	30QXD0595019843	NE30-15	T	HLL		ML	08				N				BORNA	Borna	Borna	BORNA	Borna	Borna		2009-10-14	1,2,3,4	1			2009-10-14		
1	6331426	6543025	16.380725	-2.039024	16:22:51N	2:02:20W	30QXD0262311293	NE30-15	T	DUNE		ML	08				N				TINSOOKORAN	Ti-n-Sookoran	Ti-n-Sookoran	TINSOOKORAN	Ti-n-Sookoran	Ti-n-Sookoran		2009-10-14	1,2,3,4	1			1993-09-01		
1	6331427	6543026	16.317219	-2.030323	16:19:02N	2:01:49W	30QXD0358604271	NE30-15	T	DUNE		ML	08				N				ORESGOYA	Orès Goya	Ores Goya	ORESGOYA	Orès Goya	Ores Goya		2009-10-14	1,2,3,4	1			1993-09-01		
1	6331428	6543027	16.290676	-2.099871	16:17:26N	2:06:00W	30QWD9616901301	NE30-15	T	HLL		ML	08				N				KOCHIDAN	Kochidan	Kochidan	KOCHIDAN	Kochidan	Kochidan		2009-10-14	1,2,3,4	1			1993-09-01		
3	6331436	6543036	16.035507	-2.11434	16:02:08N	2:06:52W	30QWC9474573065	NE30-15	T	RDGE		ML	08				N				TINEMENAS	Ti-n-Eménas	Ti-n-Emenas	TINEMENAS	Ti-n-Eménas	Ti-n-Emenas		2009-10-14	1,2,3,4	1			1993-09-01		
1	6331449	6543049	16.123044	-2.522242	16:07:23N	2:31:20W	30QWC5108582605	NE30-15	T	DUNE		ML	08				N				AGARARA	Agarara	Agarara	AGARARA	Agarara	Agarara		2009-10-14	1,2,3,4	1			1993-09-01		
3	6331452	6543052	16.222139	-2.57634	16:13:20N	2:34:35W	30QWC4527893554	NE30-15	T	DUNE		ML	08				N				AGRARIRINDERARATEN	Agrarir I-n-Déraratén	Agrarir I-n-Deraraten	AGRARIRINDERARATEN	Agrarir I-n-Déraratén	Agrarir I-n-Deraraten		2009-10-14	1,2,3,4,5,6,7,8,9	1			1993-09-01		
3	6331452	14124233	16.222139	-2.57634	16:13:20N	2:34:35W	30QWC4527893554	NE30-15	T	DUNE		ML	08				V				AGRARIRINDERARATEN	Agrarir In Déraratén	Agrarir In Deraraten	AGRARIRINDERARATEN	Agrarir In Déraratén	Agrarir In Deraraten		2009-10-14	1,2,3,4,5,6,7,8,9				2013-02-26		
1	6331453	6543053	16.229457	-2.639772	16:13:46N	2:38:23W	30QWC3849794351	NE30-15	T	DUNE		ML	08				N				KARKARENDERARARTEN	Karkarèn Dérarartèn	Karkaren Derararten	KARKARENDERARARTEN	Karkarèn Dérarartèn	Karkaren Derararten		2009-10-14	1,2,3,4	1			1993-09-01		
1	6331482	6543082	16.27076	-2.80703	16:16:15N	2:48:25W	30QWC2061898895	NE30-15	T	DUNE		ML	08				N				TINEGUEROUF	Ti-n-Éguerouf	Ti-n-Eguerouf	TINEGUEROUF	Ti-n-Éguerouf	Ti-n-Eguerouf		2009-10-14	1,2,3,4	1			1993-09-01		
1	6331486	6543086	16.30426	-2.776887	16:18:15N	2:46:37W	30QWD2383502604	NE30-15	T	DUNE		ML	08				N				CHATABINDI	Chatabindi	Chatabindi	CHATABINDI	Chatabindi	Chatabindi		2009-10-14	1,2,3,4	1			1993-09-01		
1	6331487	6543087	16.326695	-2.780771	16:19:36N	2:46:51W	30QWD2341705086	NE30-15	T	DUNE		ML	08				N				TAMALTIKAR	Tamal Tikar	Tamal Tikar	TAMALTIKAR	Tamal Tikar	Tamal Tikar		2009-10-14	1,2,3,4	1			1993-09-01		
1	6331493	6543093	16.438583	-2.811214	16:26:19N	2:48:40W	30QWD2015417459	NE30-15	T	DUNE		ML	08				N				TINKARAN	Ti-n-Karan	Ti-n-Karan	TINKARAN	Ti-n-Karan	Ti-n-Karan		2009-10-14	1,2,3,4	1			1993-09-01		
1	6331494	6543094	16.42329	-2.75301	16:25:24N	2:45:11W	30QWD2637015774	NE30-15	T	DUNE		ML	08				N				MASSAYA	Massaya	Massaya	MASSAYA	Massaya	Massaya		2009-10-14	1,2,3,4	1			1993-09-01		
1	6331495	6543095	16.478343	-2.836455	16:28:42N	2:50:11W	30QWD1745621855	NE30-15	T	DUNE		ML	08				N				NIPKOMADE	Nipkomadé	Nipkomade	NIPKOMADE	Nipkomadé	Nipkomade		2009-10-14	1,2,3,4	1			1993-09-01		
1	6331496	6543096	16.474621	-2.779353	16:28:29N	2:46:46W	30QWD2355121449	NE30-15	T	DUNE		ML	08				N				TINBAKOU	Ti-n-Bakou	Ti-n-Bakou	TINBAKOU	Ti-n-Bakou	Ti-n-Bakou		2009-10-14	1,2,3,4	1			1993-09-01		
1	6331497	6543097	16.47464	-2.71634	16:28:29N	2:42:59W	30QWD3027721460	NE30-15	T	DUNE		ML	08				N				TILDAIN	Til Daïn	Til Dain	TILDAIN	Til Daïn	Til Dain		2009-10-14	1,2,3,4	1			1993-09-01		
1	6331456	6543056	16.03738	-2.827165	16:02:15N	2:49:38W	30QWC1848873078	NE30-15	T	DUNE		ML	08				N				GAROU	Garou	Garou	GAROU	Garou	Garou		2009-10-14	1,2,3,4	1			1993-09-01		
1	6331457	6543057	16.107292	-2.683939	16:06:26N	2:41:02W	30QWC3379880829	NE30-15	T	DUNE		ML	08				N				AMDIG	Amdig	Amdig	AMDIG	Amdig	Amdig		2009-10-14	1,2,3,4	1			1993-09-01		
1	6331459	6543059	16.043323	-2.586934	16:02:36N	2:35:13W	30QWC4418573772	NE30-15	T	DUNE		ML	08				N				TAMARAKI	Tamaraki	Tamaraki	TAMARAKI	Tamaraki	Tamaraki		2009-10-14	1,2,3,4	1			1993-09-01		
1	6331461	6543061	16.611444	-2.383373	16:36:41N	2:23:00W	30QWD6577136673	NE30-15	T	DUNE		ML	08				V				TINIAZOMI	Ti-n-Iazomi	Ti-n-Iazomi	TINIAZOMI	Ti-n-Iazomi	Ti-n-Iazomi		2009-10-14	1,2,3,4				2009-10-14		
1	6331461	11271068	16.611444	-2.383373	16:36:41N	2:23:00W	30QWD6577136673	NE30-15	T	DUNE		ML	08				N				TINTAZOMI	Ti-n-Tazomi	Ti-n-Tazomi	TINTAZOMI	Ti-n-Tazomi	Ti-n-Tazomi		2009-10-14	1,2,3,4	1			2009-10-14		
1	6331462	6543062	16.438207	-2.482721	16:26:18N	2:28:58W	30QWD5522317479	NE30-15	T	DUNE		ML	08				N				INTAYLEL	I-n-Taylèl	I-n-Taylel	INTAYLEL	I-n-Taylèl	I-n-Taylel		2009-10-14	1,2,3,4	1			1993-09-01		
1	6331463	6543063	16.972177	-2.46241	16:58:20N	2:27:45W	30QWD5723276555	NE30-15	T	TRGD		ML	08				N			Tayert	TAYERTTINAKAOUAT	Tayert Ti-n-Akaouat	Tayert Ti-n-Akaouat	AKAOUAT TAYERTTIN	Akaouat, Tayert Ti-n-	Akaouat, Tayert Ti-n-		2009-10-14	1,2,3,4	1			1993-09-01		
1	6331464	6543064	16.987119	-2.494722	16:59:14N	2:29:41W	30QWD5378878199	NE30-15	T	DUNE		ML	08				N				AGUINELEHE	Aguinéléhé	Aguinelehe	AGUINELEHE	Aguinéléhé	Aguinelehe		2009-10-14	1,2,3,4	1			1993-09-01		
3	6331466	6543066	16.013632	-2.528342	16:00:49N	2:31:42W	30QWC5046070501	NE30-15	T	DUNE		ML	08				N				SARKAK	Sarkak	Sarkak	SARKAK	Sarkak	Sarkak		2009-10-14	1,2,3,4	1			1993-09-01		
1	6331468	6543068	16.166073	-2.651973	16:09:58N	2:39:07W	30QWC3720587337	NE30-15	T	DUNE		ML	08				N				TIDAINYOUN	Tida Inyoun	Tida Inyoun	TIDAINYOUN	Tida Inyoun	Tida Inyoun		2009-10-14	1,2,3,4	1			1993-09-01		
1	6331490	6543090	16.445614	-2.951322	16:26:44N	2:57:05W	30QWD0519618228	NE30-15	T	DUNE		ML	08				N				TINABOUS	Ti-n-Abous	Ti-n-Abous	TINABOUS	Ti-n-Abous	Ti-n-Abous		2009-10-14	1,2,3,4	1			1993-09-01		
1	6331491	6543091	16.479141	-2.940654	16:28:45N	2:56:26W	30QWD0633421937	NE30-15	T	DUNE		ML	08				N				ATILITAMADI	Atilit Amadi	Atilit Amadi	ATILITAMADI	Atilit Amadi	Atilit Amadi		2009-10-14	1,2,3,4	1			1993-09-01		
1	6331498	6543098	16.523352	-2.95	16:31:24N	2:57:00W	30QWD0533526828	NE30-15	T	DUNE		ML	08				N				TAOUIOUELT	Taouiouelt	Taouiouelt	TAOUIOUELT	Taouiouelt	Taouiouelt		2009-10-14	1,2,3,4	1			1993-09-01		
1	6331499	6543099	16.568683	-2.947434	16:34:07N	2:56:51W	30QWD0560831842	NE30-15	T	DUNE		ML	08				N				AREGUEYRAGUEY	Aréguèy Raguèy	Areguey Raguey	AREGUEYRAGUEY	Aréguèy Raguèy	Areguey Raguey		2009-10-14	1,2,3,4	1			1993-09-01		
1	6331501	6543101	16.559461	-2.911667	16:33:34N	2:54:42W	30QWD0942430824	NE30-15	T	DUNE		ML	08				N				NTARAF	Ntaraf	Ntaraf	NTARAF	Ntaraf	Ntaraf		2009-10-14	1,2,3,4	1			1993-09-01		
1	-1065696	-1582125	16.2515	-4.7853	16:15:05N	4:47:07W	30QUC0920297587	NE30-13	T	HLL		ML	00				V				KREIBATELBRABICH	Kreïbât el Brâbîch	Kreibat el Brabich	BRABICH KREIBATEL	Brâbîch, Kreïbât el	Brabich, Kreibat el		2008-09-18	1,2,3,4,5				2008-09-18		
1	-1065696	10692739	16.2515	-4.7853	16:15:05N	4:47:07W	30QUC0920297587	NE30-13	T	HLL		ML	00				N			Kreïbât	KREIBATELBERABICH	Kreïbât el Berâbich	Kreibat el Berabich	BERABICH KREIBATEL	Berâbich, Kreïbât el	Berabich, Kreibat el		2008-09-18	1,2,3,4,5	1			2008-09-18		
3	-1065696	-1581458	16.2515	-4.7853	16:15:05N	4:47:07W	30QUC0920297587	NE30-13	T	HLL		ML	00				V				KREIBATELBERABICH	Kreïbat el Berabich	Kreibat el Berabich	BERABICH KREIBATEL	Berabich, Kreïbat el	Berabich, Kreibat el		2008-09-18	1,2,3,4,5				1993-09-01		
1	-1076563	-1597619	12.136138	-7.464221	12:08:10N	7:27:51W	29PPP6711842079	ND29-16	T	HLLS		ML	06				V				TYEMEDOUGOULOU	Tyémédougoulou	Tyemedougoulou	TYEMEDOUGOULOU	Tyémédougoulou	Tyemedougoulou		2008-11-06	1,2,3,4,5				2008-11-06		
1	-1076563	10808455	12.136138	-7.464221	12:08:10N	7:27:51W	29PPP6711842079	ND29-16	T	HLLS		ML	06				N				KEMEDOUGOUKOULOU	Kèmèdougou Koulou	Kemedougou Koulou	KEMEDOUGOUKOULOU	Kèmèdougou Koulou	Kemedougou Koulou		2008-11-06	1,2,3,4,5	1			2008-11-06		
1	-1067150	-1584077	12.194232	-7.519895	12:11:39N	7:31:12W	29PPP6102348471	ND29-15	T	HLLS		ML	07				V				DYAMADOUKOUGOULOU	Dyamadoukougoulou	Dyamadoukougoulou	DYAMADOUKOUGOULOU	Dyamadoukougoulou	Dyamadoukougoulou		2008-11-06	1,2,3,4,5				2008-11-06		
1	-1067150	10808465	12.194232	-7.519895	12:11:39N	7:31:12W	29PPP6102348471	ND29-15	T	HLLS		ML	07				N				DIAMADOUKOULOU	Diamadou Koulou	Diamadou Koulou	DIAMADOUKOULOU	Diamadou Koulou	Diamadou Koulou		2008-11-06	1,2,3,4,5	1			2008-11-06		
3	-1071015	-1589633	10.466667	-6.916667	10:28:00N	6:55:00W	29PQM2803857763	NC29-08	T	HLL		ML	00				N				KOUROUNIANI	Kourouniani	Kourouniani	KOUROUNIANI	Kourouniani	Kourouniani		1993-12-18	1,2,3,4,5	1			1993-09-01		
3	-1076391	-1597401	24.933333	-6.083333	24:56:00N	6:05:00W	29RQH9456160728	NG29-16	T	HLL		ML	00				N				TOUIRIST	Touirist	Touirist	TOUIRIST	Touirist	Touirist		1993-12-18	1,2,3,4,5	1			1993-09-01		
3	-1076381	-1597390	17.566667	-1.666667	17:34:00N	1:40:00W	30QXE4150142741	NE30-11	T	DUNE		ML	08				N			Nebket	NEBKETTOUGOUA	Nebket Tougoua	Nebket Tougoua	TOUGOUA NEBKET	Tougoua, Nebket	Tougoua, Nebket		2006-06-08	1,2,3,4,5	1			1993-09-01		
3	-1075809	-1596499	16.129444	-1.597778	16:07:46N	1:35:52W	30QXC4994283764	NE30-15	T	DUNE		ML	08				N				TINBILAL	Ti-n-Bilal	Ti-n-Bilal	TINBILAL	Ti-n-Bilal	Ti-n-Bilal		2006-05-23	1,2,3,4,5,6,7,8,9	1			1993-09-01		
3	-1075806	-1596495	17.2	.333333	17:12:00N	0:20:00E	31QBV1636903633	NE31-09	T	HLL		ML	00				N				TINBEGGUI	Ti-n-Beggui	Ti-n-Beggui	TINBEGGUI	Ti-n-Beggui	Ti-n-Beggui		1993-12-18	1,2,3,4,5,6,7	1			1993-09-01		
3	-1075806	14133301	17.2	.333333	17:12:00N	0:20:00E	31QBV1636903633	NE31-09	T	HLL		ML	00				V				TINBEGGUI	Tin Beggui	Tin Beggui	TINBEGGUI	Tin Beggui	Tin Beggui		1993-12-18	1,2,3,4,5,6,7				2013-03-04		
3	-1075806	-1581333	17.2	.333333	17:12:00N	0:20:00E	31QBV1636903633	NE31-09	T	HLL		ML	00				V			Adrar	ADRARTINBEGGI	Adrar Tin Beggi	Adrar Tin Beggi	BEGGI ADRARTIN	Beggi, Adrar Tin	Beggi, Adrar Tin		1993-12-18	1,2,3,4,5,6,7				1993-09-01		
3	-1075804	-1596489	20.181667	.419444	20:10:54N	0:25:10E	31QBC3030133681	NF31-13	T	SCRP		ML	10				V				TINBARAHIM	Tin Barahim	Tin Barahim	TINBARAHIM	Tin Barahim	Tin Barahim		2007-01-31	1,2,3,4,5				2005-04-07		
3	-1075804	6606626	20.181667	.419444	20:10:54N	0:25:10E	31QBC3030133681	NF31-13	T	SCRP		ML	10				N				TINBARAHIN	T-i-n-Barahin	T-i-n-Barahin	TINBARAHIN	T-i-n-Barahin	T-i-n-Barahin		2007-01-31	1,2,3,4,5	1			2005-04-07		
3	-1075804	9266282	20.181667	.419444	20:10:54N	0:25:10E	31QBC3030133681	NF31-13	T	SCRP		ML	10				V				TINBARAKHIN	Tin-Barakhin	Tin-Barakhin	TINBARAKHIN	Tin-Barakhin	Tin-Barakhin		2007-01-31	1,2,3,4,5				2005-04-07		
3	-1075804	-1596490	20.181667	.419444	20:10:54N	0:25:10E	31QBC3030133681	NF31-13	T	SCRP		ML	10				V				TINBARAHINE	Ti-n-Barahine	Ti-n-Barahine	TINBARAHINE	Ti-n-Barahine	Ti-n-Barahine		2007-01-31	1,2,3,4,5				2005-04-07		
3	-1075795	-1596478	16.215	-1.726389	16:12:54N	1:43:35W	30QXC3612993140	NE30-15	T	DUNE		ML	08				N				TINAZABAR	Ti-n-Azabar	Ti-n-Azabar	TINAZABAR	Ti-n-Azabar	Ti-n-Azabar		2006-05-23	1,2,3,4,5,6,7,8,9	1			1993-09-01		
3	-1075788	-1596469	17.1925	-.166944	17:11:33N	0:10:01W	30QZE0135203054	NE30-12	T	HLL		ML	09				N				TINAROULEH	Ti-n-Arouleh	Ti-n-Arouleh	TINAROULEH	Ti-n-Arouleh	Ti-n-Arouleh		2007-04-10	1,2,3,4,5	1			2007-04-10		
3	-1073027	-1592481	17.1875	-.463611	17:11:15N	0:27:49W	30QYE6978502063	NE30-12	T	DUNE		ML	09				N				OUGUELENE	Ouguelene	Ouguelene	OUGUELENE	Ouguelene	Ouguelene		2007-04-10	1,2,3,4,5	1			2007-04-10		
3	-1073151	-1592692	20.537778	-2.319167	20:32:16N	2:19:09W	30QWH7097571142	NF30-15	T	ERG		ML	08				V				ERGELOUTIDATE	Erg el Outidate	Erg el Outidate	OUTIDATE ERGEL	Outidate, Erg el	Outidate, Erg el		2007-01-25	1,2,3,4,5,6,7,8,9				2005-04-11		
3	-1073151	-1589997	20.537778	-2.319167	20:32:16N	2:19:09W	30QWH7097571142	NF30-15	T	ERG		ML	08				V				ERGLOUTEIDAT	Erg Louteïdat	Erg Louteidat	LOUTEIDAT ERG	Louteïdat, Erg	Louteidat, Erg		2007-01-25	1,2,3,4,5,6,7,8,9				2005-04-11		
3	-1073151	9272397	20.537778	-2.319167	20:32:16N	2:19:09W	30QWH7097571142	NF30-15	T	ERG		ML	08				V				ERGELUTEYDAT	Erg-el’-Uteydat	Erg-el'-Uteydat	UTEYDAT ERGEL	Uteydat, Erg-el’-	Uteydat, Erg-el'-		2007-01-25	1,2,3,4,5,6,7,8,9				2005-04-11		
3	-1073151	-1592689	20.537778	-2.319167	20:32:16N	2:19:09W	30QWH7097571142	NF30-15	T	ERG		ML	08				N			’Erg	ERGELOUTEIDAT	’Erg el Outeïdât	'Erg el Outeidat	OUTEIDAT ERGEL	Outeïdât, ’Erg el	Outeidat, 'Erg el		2007-01-25	1,2,3,4,5,6,7,8,9	1			2005-04-11		
3	-1074805	-1594932	17.753056	-.5275	17:45:11N	0:31:39W	30QYE6217464591	NE30-12	T	HLL		ML	09				N			Adara	ADRARTABARBAROUT	Adrar Tabarbarout	Adrar Tabarbarout	TABARBAROUT ADRAR	Tabarbarout, Adrar	Tabarbarout, Adrar		2007-04-10	1,2,3,4,5	1			2007-04-10		
3	-1071601	-1590420	16.891111	-1.080278	16:53:28N	1:04:49W	30QYD0449168505	NE30-16	T	DUNE		ML	08				N				MARBANA	Marbana	Marbana	MARBANA	Marbana	Marbana		2006-05-23	1,2,3,4,5,6,7,8,9	1			1993-09-01		
3	-1075631	-1596247	19.821944	.074722	19:49:19N	0:04:29E	31QAB9355594432	NE31-01	T	PLAT		ML	10				N				TIHEDJRINE	Ti Hedjrine	Ti Hedjrine	TIHEDJRINE	Ti Hedjrine	Ti Hedjrine		2007-02-28	1,2,3,4,5	1			2005-04-07		
3	-1075631	-1596246	19.821944	.074722	19:49:19N	0:04:29E	31QAB9355594432	NE31-01	T	PLAT		ML	10				V				TIHEDJRIN	Ti Hedjrin	Ti Hedjrin	TIHEDJRIN	Ti Hedjrin	Ti Hedjrin		2007-02-28	1,2,3,4,5				2005-04-07		
3	-1075631	-1586207	19.821944	.074722	19:49:19N	0:04:29E	31QAB9355594432	NE31-01	T	PLAT		ML	10				V			Plateau	PLATEAUDETINHIGIRIN	Plateau de Tin Higirin	Plateau de Tin Higirin	HIGIRIN PLATEAUDETIN	Higirin, Plateau de Tin	Higirin, Plateau de Tin		2007-02-28	1,2,3,4,5				2005-04-07		
3	-1075631	9262916	19.821944	.074722	19:49:19N	0:04:29E	31QAB9355594432	NE31-01	T	PLAT		ML	10				V			Plato	PLATOTIKHEDZHRIN	Plato Ti-Khedzhrin	Plato Ti-Khedzhrin	TIKHEDZHRIN PLATO	Ti-Khedzhrin, Plato	Ti-Khedzhrin, Plato		2007-02-28	1,2,3,4,5				2005-04-07		
3	-1074892	-1595064	17.083333	.966667	17:05:00N	0:58:00E	31QBU8362389902	NE31-09	T	DUNE		ML	09				N			Dune	DUNEDELATAGAZAT	Dune de la Tagazat	Dune de la Tagazat	TAGAZAT DUNEDELA	Tagazat, Dune de la	Tagazat, Dune de la		2006-06-08	1,2,3,4,5	1			1993-09-01		
3	-1071111	-1589772	18.916667	.266667	18:55:00N	0:16:00E	31QBA1208793834	NE31-05	T	ERG		ML	10				N			’Erg	ERGLAGMAR	’Erg Lagmar	'Erg Lagmar	LAGMAR ERG	Lagmar, ’Erg	Lagmar, 'Erg		2006-06-01	1,2,3,4,5	1			1993-09-01		
3	-1073823	-1593606	17.5	-1.15	17:30:00N	1:09:00W	30QXE9641935823	NE30-12	T	DUNE		ML	00				N				SEDRATTOBEIGA	Sédrat Tobeïga	Sedrat Tobeiga	SEDRATTOBEIGA	Sédrat Tobeïga	Sedrat Tobeiga		1993-12-18	1,2,3,4,5	1			1993-09-01		
3	-1070529	-1589000	12.7	-9.233333	12:42:00N	9:14:00W	29PMQ7466703972	ND29-14	T	HLL		ML	00				N				KONIKAKOUROU	Konika Kourou	Konika Kourou	KONIKAKOUROU	Konika Kourou	Konika Kourou		1993-12-18	1,2,3,4,5	1			1993-09-01		
3	-1064230	-1580074	19.3525	2.678889	19:21:09N	2:40:44E	31QDB6627539863	NE31-02	T	MT		ML	10				N				AMCHEKENCHAR	Amchekenchar	Amchekenchar	AMCHEKENCHAR	Amchekenchar	Amchekenchar		2007-04-04	1,2,3,4,5	1			2007-04-04		
3	-1068171	-1585461	17.25	.25	17:15:00N	0:15:00E	31QBV0757909294	NE31-09	T	HLL		ML	00				N				GARDINOUFA	Gardinoufa	Gardinoufa	GARDINOUFA	Gardinoufa	Gardinoufa		1993-12-18	1,2,3,4,5	1			1993-09-01		
3	-1075889	-1596636	16.719722	1.501944	16:43:11N	1:30:07E	31QCU4029249150	NE31-14	T	HLL		ML	09				N				TINESSOUK	Ti-n-Essoûk	Ti-n-Essouk	TINESSOUK	Ti-n-Essoûk	Ti-n-Essouk		2006-06-01	1,2,3,4,5	1			1993-09-01		
3	-1075875	-1596608	19.870833	2.016667	19:52:15N	2:01:00E	31QCB9705197488	NE31-02	T	MT		ML	10				N				TINELOR	Ti-n-Elor	Ti-n-Elor	TINELOR	Ti-n-Elor	Ti-n-Elor		2007-04-04	1,2,3,4,5	1			2007-04-04		
3	-1075875	9350495	19.870833	2.016667	19:52:15N	2:01:00E	31QCB9705197488	NE31-02	T	MT		ML	10				V	rus		Gora	GORATINELOR	Gora Tin-Elor	Gora Tin-Elor	TINELOR GORA	Tin-Elor, Gora	Tin-Elor, Gora		2007-04-04	1,2,3,4,5				2007-04-04		
3	-1076121	9262952	19.892778	.164444	19:53:34N	0:09:52E	31QBC0309202118	NE31-01	T	RDGE		ML	10				V				TIVALAVALEN	Tivalavalen	Tivalavalen	TIVALAVALEN	Tivalavalen	Tivalavalen		2007-02-28	1,2,3,4,5				2005-04-07		
3	-1076121	-1597018	19.892778	.164444	19:53:34N	0:09:52E	31QBC0309202118	NE31-01	T	RDGE		ML	10				N				TIOUALAOUALENE	Tioualaoualene	Tioualaoualene	TIOUALAOUALENE	Tioualaoualene	Tioualaoualene		2007-02-28	1,2,3,4,5	1			2005-04-07		
3	-1075000	-1595231	17.115278	2.919722	17:06:55N	2:55:11E	31QDU9146092309	NE31-10	T	SCRP		ML	09				V				TAMAHMAT	Tamahmat	Tamahmat	TAMAHMAT	Tamahmat	Tamahmat		2006-05-25	1,2,3,4,5				1993-09-01		
3	-1075000	6406306	17.115278	2.919722	17:06:55N	2:55:11E	31QDU9146092309	NE31-10	T	SCRP		ML	09				V				TAMAHAMOT	Tamahamot	Tamahamot	TAMAHAMOT	Tamahamot	Tamahamot		2006-05-25	1,2,3,4,5				1993-09-01		
3	-1075000	-1595229	17.115278	2.919722	17:06:55N	2:55:11E	31QDU9146092309	NE31-10	T	SCRP		ML	09				N				TAMAHAMAT	Tamahamat	Tamahamat	TAMAHAMAT	Tamahamat	Tamahamat		2006-05-25	1,2,3,4,5	1			1993-09-01		
3	-1067282	-1586915	18.613333	2.113056	18:36:48N	2:06:47E	31QDA0643358276	NE31-06	T	RDGE		ML	10				V				INRHAR	In Rhar	In Rhar	INRHAR	In Rhar	In Rhar		2006-06-08	1,2,3,4,5				1993-09-01		
3	-1067282	-1586906	18.613333	2.113056	18:36:48N	2:06:47E	31QDA0643358276	NE31-06	T	RDGE		ML	10				V				INRAR	I-n-R’ar	I-n-R'ar	INRAR	I-n-R’ar	I-n-R'ar		2006-06-08	1,2,3,4,5				1993-09-01		
3	-1067282	-1584237	18.613333	2.113056	18:36:48N	2:06:47E	31QDA0643358276	NE31-06	T	RDGE		ML	10				N				ADRARINEGHER	Adrar I-n-Egher	Adrar I-n-Egher	ADRARINEGHER	Adrar I-n-Egher	Adrar I-n-Egher		2006-06-08	1,2,3,4,5	1			1993-09-01		
3	-1067282	-1580288	18.613333	2.113056	18:36:48N	2:06:47E	31QDA0643358276	NE31-06	T	RDGE		ML	10				V			Mont	MONTINARER	Mont in Arer	Mont in Arer	ARER MONTIN	Arer, Mont in	Arer, Mont in		2006-06-08	1,2,3,4,5				1993-09-01		
3	-1067282	-1584439	18.613333	2.113056	18:36:48N	2:06:47E	31QDA0643358276	NE31-06	T	RDGE		ML	10				V			Adrar	ADRARINERHER	Adrar i-n-Erher	Adrar i-n-Erher	ERHER ADRARIN	Erher, Adrar i-n-	Erher, Adrar i-n-		2006-06-08	1,2,3,4,5				1993-09-01		
3	-1067277	-1584226	16.775556	-1.044444	16:46:32N	1:02:40W	30QYD0843655753	NE30-16	T	DUNE		ML	08				N				EFERBANDOU	Efèrbandou	Eferbandou	EFERBANDOU	Efèrbandou	Eferbandou		2006-05-23	1,2,3,4,5,6,7,8,9	1			1993-09-01		
3	-1067272	-1584234	19.683889	.403056	19:41:02N	0:24:11E	31QBB2773578580	NE31-01	T	ERG		ML	10				V			’Erg	ERGINEGEBAR	Erg in Egebar	Erg in Egebar	EGEBAR ERGIN	Egebar, Erg in	Egebar, Erg in		2007-02-28	1,2,3,4,5				2005-04-06		
3	-1067272	9262905	19.683889	.403056	19:41:02N	0:24:11E	31QBB2773578580	NE31-01	T	ERG		ML	10				V			’Erg	ERGINEDZHEBAR	Erg-in-Edzhebar	Erg-in-Edzhebar	EDZHEBAR ERGIN	Edzhebar, Erg-in-	Edzhebar, Erg-in-		2007-02-28	1,2,3,4,5				2005-04-06		
3	-1067272	-1584219	19.683889	.403056	19:41:02N	0:24:11E	31QBB2773578580	NE31-01	T	ERG		ML	10				N			’Erg	ERGINEDJEBAR	’Erg I-n-Edjebar	'Erg I-n-Edjebar	EDJEBAR ERGIN	Edjebar, ’Erg I-n-	Edjebar, 'Erg I-n-		2007-02-28	1,2,3,4,5	1			2005-04-06		
3	-1067265	-1584211	18.062222	-.606944	18:03:44N	0:36:25W	30QYE5330698710	NE30-08	T	HLL		ML	09				V				ADRARTINEDAMANE	Adrar Ti-n-Edamane	Adrar Ti-n-Edamane	TINEDAMANE ADRAR	Ti-n-Edamane, Adrar	Ti-n-Edamane, Adrar		2006-09-13	1,2,3,4,5				1993-09-01		
3	-1067265	-1584210	18.062222	-.606944	18:03:44N	0:36:25W	30QYE5330698710	NE30-08	T	HLL		ML	09				V				ADRARTINEDAMAN	Adrar tin Edaman	Adrar tin Edaman	EDAMAN ADRARTIN	Edaman, Adrar tin	Edaman, Adrar tin		2006-09-13	1,2,3,4,5				1993-09-01		
3	-1067265	6541004	18.062222	-.606944	18:03:44N	0:36:25W	30QYE5330698710	NE30-08	T	HLL		ML	09				N			Adrar	ADRARINDAMANE	Adrar I-n-Damâne	Adrar I-n-Damane	INDAMANE ADRAR	I-n-Damâne, Adrar	I-n-Damane, Adrar		2006-09-13	1,2,3,4,5	1			1993-09-01		
3	-1067260	-1584203	20.295833	1.286389	20:17:45N	1:17:11E	31QCC2106445147	NF31-13	T	HLLS		ML	10				N			Adrar	ADRARTINECHENI	Adrar ti-n-Echeni	Adrar ti-n-Echeni	ECHENI ADRARTIN	Echeni, Adrar ti-n-	Echeni, Adrar ti-n-		2007-02-02	1,2,3,4,5	1			2005-04-07		
3	-1067260	9269820	20.295833	1.286389	20:17:45N	1:17:11E	31QCC2106445147	NF31-13	T	HLLS		ML	10				V				ADRARTINESHENI	Adrar-tin-Esheni	Adrar-tin-Esheni	ESHENI ADRARTIN	Esheni, Adrar-tin-	Esheni, Adrar-tin-		2007-02-02	1,2,3,4,5				2005-04-07		
3	-1075417	6541001	18.897778	-.659722	18:53:52N	0:39:35W	30QYF4651991148	NE30-08	T	HLLS		ML	09				N				TERAOUINE	Teraouîne	Teraouine	TERAOUINE	Teraouîne	Teraouine		2006-09-13	1,2,3,4,5	1			1993-09-01		
3	-1075417	-1595858	18.897778	-.659722	18:53:52N	0:39:35W	30QYF4651991148	NE30-08	T	HLLS		ML	09				V				MONTSTEROUIN	Monts Terouin	Monts Terouin	TEROUIN MONTS	Terouin, Monts	Terouin, Monts		2006-09-13	1,2,3,4,5				1993-09-01		
3	-1075417	-1595859	18.897778	-.659722	18:53:52N	0:39:35W	30QYF4651991148	NE30-08	T	HLLS		ML	09				V				MONTSTEROUINE	Monts Terouine	Monts Terouine	TEROUINE MONTS	Terouine, Monts	Terouine, Monts		2006-09-13	1,2,3,4,5				1993-09-01		
3	-1075399	-1595830	21.132778	-.150278	21:07:58N	0:09:01W	30QYJ9599639498	NF30-12	T	ERG		ML	10				N				ERGINTERCHICHERINE	’Erg I-n-Terchicherine	'Erg I-n-Terchicherine	INTERCHICHERINE ERG	I-n-Terchicherine, ’Erg	I-n-Terchicherine, 'Erg		2006-05-31	1,2,3,4,5	1			1993-09-01		
3	-1075399	6406900	21.132778	-.150278	21:07:58N	0:09:01W	30QYJ9599639498	NF30-12	T	ERG		ML	10				V				ERGINETERCHICHERINE	Erg Ine Terchicherine	Erg Ine Terchicherine	INETERCHICHERINE ERG	Ine Terchicherine, Erg	Ine Terchicherine, Erg		2006-05-31	1,2,3,4,5				1993-09-01		
3	-1075399	-1595828	21.132778	-.150278	21:07:58N	0:09:01W	30QYJ9599639498	NF30-12	T	ERG		ML	10				V				ERGINTERCHICHERIN	Erg In Terchicherin	Erg In Terchicherin	INTERCHICHERIN ERG	In Terchicherin, Erg	In Terchicherin, Erg		2006-05-31	1,2,3,4,5				1993-09-01		
3	-1068856	-1586701	17.923056	.116944	17:55:23N	0:07:01E	31QAV9455584039	NE31-09	T	BUTE		ML	09				V				INERIDAL	In Eridal	In Eridal	INERIDAL	In Eridal	In Eridal		2006-06-08	1,2,3,4,5				1993-09-01		
3	-1068856	-1586552	17.923056	.116944	17:55:23N	0:07:01E	31QAV9455584039	NE31-09	T	BUTE		ML	09				N				INARIDAL	I-n-Aridal	I-n-Aridal	INARIDAL	I-n-Aridal	I-n-Aridal		2006-06-08	1,2,3,4,5	1			1993-09-01		
3	-1068852	-1586546	16.678333	-.660556	16:40:42N	0:39:38W	30QYD4949745434	NE30-16	T	DUNE		ML	09				N				INARCH	I-n-Arch	I-n-Arch	INARCH	I-n-Arch	I-n-Arch		2006-05-24	1,2,3,4,5	1			1993-09-01		
3	-1068847	-1586538	16.745556	-.81	16:44:44N	0:48:36W	30QYD3347152694	NE30-16	T	MESA		ML	09				N				INARAHIM	I-n-Arahim	I-n-Arahim	INARAHIM	I-n-Arahim	I-n-Arahim		2006-05-24	1,2,3,4,5	1			1993-09-01		
3	-1072118	-1591212	21.397222	-.088611	21:23:50N	0:05:19W	30QZJ0186568910	NF30-12	T	ERG		ML	10				V				ERGENNAJ	Erg en Naj	Erg en Naj	NAJ ERGEN	Naj, Erg en	Naj, Erg en		2006-05-31	1,2,3,4,5				1993-09-01		
3	-1072118	-1591169	21.397222	-.088611	21:23:50N	0:05:19W	30QZJ0186568910	NF30-12	T	ERG		ML	10				N			’Erg	ERGENNAAJ	’Erg en Nâaj	'Erg en Naaj	NAAJ ERGEN	Nâaj, ’Erg en	Naaj, 'Erg en		2006-05-31	1,2,3,4,5	1			1993-09-01		
3	-1072111	-1591154	20.465833	-1.766389	20:27:57N	1:45:59W	30QXH2866663516	NF30-15	T	TRGD		ML	08				V			Feïdj	FEIDJELMRAYER	Feïdj el Mrâyer	Feidj el Mrayer	MRAYER FEIDJEL	Mrâyer, Feïdj el	Mrayer, Feidj el		2007-01-26	1,2,3,4,5				2005-04-07		
3	-1072111	-1591151	20.465833	-1.766389	20:27:57N	1:45:59W	30QXH2866663516	NF30-15	T	TRGD		ML	08				N			Feidj	FEIDJELMRAIER	Feidj el Mraier	Feidj el Mraier	MRAIER FEIDJEL	Mraier, Feidj el	Mraier, Feidj el		2007-01-26	1,2,3,4,5	1			2005-04-07		
3	-1072111	9258144	20.465833	-1.766389	20:27:57N	1:45:59W	30QXH2866663516	NF30-15	T	TRGD		ML	08				V				FEIDZHELMRAYER	Feidzh-el-Mrayer	Feidzh-el-Mrayer	MRAYER FEIDZHEL	Mrayer, Feidzh-el-	Mrayer, Feidzh-el-		2007-01-26	1,2,3,4,5				2005-04-07		
3	-1072110	-1591150	20.5	-3	20:30:00N	3:00:00W	30QWH0000066813	NF30-15	T	ERG		ML	08				V				ERGELMRAIER	Erg el Mraïer	Erg el Mraier	MRAIER ERGEL	Mraïer, Erg el	Mraier, Erg el		2005-04-12	1,2,3,4,5				2005-04-11		
3	-1072110	-1591153	20.5	-3	20:30:00N	3:00:00W	30QWH0000066813	NF30-15	T	ERG		ML	08				N			’Erg	ERGELMRAYER	’Erg el Mrâyer	'Erg el Mrayer	MRAYER ERGEL	Mrâyer, ’Erg el	Mrayer, 'Erg el		2005-04-12	1,2,3,4,5	1			2005-04-11		
3	-1068839	-1586529	16.95	.783333	16:57:00N	0:47:00E	31QBU6393975356	NE31-13	T	DUNE		ML	00				N				INANA	I-n-Ana	I-n-Ana	INANA	I-n-Ana	I-n-Ana		1993-12-18	1,2,3,4,5	1			1993-09-01		
3	-1064069	-1586197	20.416667	-2.233333	20:25:00N	2:14:00W	30QWH7998657777	NF30-15	T	ERG		ML	08				N			’Erg	ERGELHEMAR	’Erg el Hemâr	'Erg el Hemar	HEMAR ERGEL	Hemâr, ’Erg el	Hemar, 'Erg el		2007-01-25	1,2,3,4,5,6,7,8,9	1			2005-04-11		
3	-1064069	-1579832	20.416667	-2.233333	20:25:00N	2:14:00W	30QWH7998657777	NF30-15	T	ERG		ML	08				V				ERGELAHMAR	’Erg el Ahmar	'Erg el Ahmar	AHMAR ERGEL	Ahmar, ’Erg el	Ahmar, 'Erg el		2007-01-25	1,2,3,4,5,6,7,8,9				2005-04-11		
3	-1064069	9272394	20.416667	-2.233333	20:25:00N	2:14:00W	30QWH7998657777	NF30-15	T	ERG		ML	08				V				ERGELKHEMAR	Erg-el’-Khemar	Erg-el'-Khemar	KHEMAR ERGEL	Khemar, Erg-el’-	Khemar, Erg-el'-		2007-01-25	1,2,3,4,5,6,7,8,9				2005-04-11		
3	-1064069	-1580042	20.416667	-2.233333	20:25:00N	2:14:00W	30QWH7998657777	NF30-15	T	ERG		ML	08				V				ERGELAMAR	Erg el Amar	Erg el Amar	AMAR ERGEL	Amar, Erg el	Amar, Erg el		2007-01-25	1,2,3,4,5,6,7,8,9				2005-04-11		
3	-1064065	-1579827	19.863611	2.855	19:51:49N	2:51:18E	31QDB8481996395	NE31-02	T	HLLS		ML	10				N				AHEL	Ahel	Ahel	AHEL	Ahel	Ahel		2007-04-04	1,2,3,4,5	1			2007-04-04		
3	-1064051	-1579818	16.853333	.894722	16:51:12N	0:53:41E	31QBU7569264525	NE31-13	T	MESA		ML	09				N				AGUEULGUEUL	Agueulgueul	Agueulgueul	AGUEULGUEUL	Agueulgueul	Agueulgueul		2006-06-08	1,2,3,4,5	1			1993-09-01		
3	-1064051	-1579802	16.853333	.894722	16:51:12N	0:53:41E	31QBU7569264525	NE31-13	T	MESA		ML	09				V				AGUELGUEL	Aguelguel	Aguelguel	AGUELGUEL	Aguelguel	Aguelguel		2006-06-08	1,2,3,4,5				1993-09-01		
3	-1071374	-1590111	17.3	-1.216667	17:18:00N	1:13:00W	30QXE8954513620	NE30-12	T	DUNE		ML	09				N			Achaïf	ACHAIFMAGROUNA	Achaïf Magrouna	Achaif Magrouna	MAGROUNA ACHAIF	Magrouna, Achaïf	Magrouna, Achaif		2006-06-08	1,2,3,4,5	1			1993-09-01		
3	-1075341	-1595745	15.45	-3.816667	15:27:00N	3:49:00W	30PVC1238608265	ND30-02	T	HLL		ML	00				N				TELETONDI	Télé Tondi	Tele Tondi	TELETONDI	Télé Tondi	Tele Tondi		1993-12-18	1,2,3,4,5	1			1993-09-01		
3	-1075335	-1595736	18.333333	1.333333	18:20:00N	1:20:00E	31QCA2387727871	NE31-05	T	HLL		ML	10				N				ADRARTELEHNE	Adrar Telehne	Adrar Telehne	ADRARTELEHNE	Adrar Telehne	Adrar Telehne		2006-06-02	1,2,3,4,5	1			1993-09-01		
3	-1075335	-1595735	18.333333	1.333333	18:20:00N	1:20:00E	31QCA2387727871	NE31-05	T	HLL		ML	10				V				ADRARTELEHENE	Adrar Telehene	Adrar Telehene	ADRARTELEHENE	Adrar Telehene	Adrar Telehene		2006-06-02	1,2,3,4,5				1993-09-01		
3	-1075335	-1595734	18.333333	1.333333	18:20:00N	1:20:00E	31QCA2387727871	NE31-05	T	HLL		ML	10				V				ADRARTELEHEN	Adrar Télehen	Adrar Telehen	ADRARTELEHEN	Adrar Télehen	Adrar Telehen		2006-06-02	1,2,3,4,5				1993-09-01		
3	-1068846	-1586536	16.519722	-.028611	16:31:11N	0:01:43W	30QZD1719928766	NE30-16	T	MT		ML	09				V				INARAFOUDEN	In Ara Foudèn	In Ara Fouden	INARAFOUDEN	In Ara Foudèn	In Ara Fouden		2006-05-24	1,2,3,4,5				1993-09-01		
3	-1068846	-1586537	16.519722	-.028611	16:31:11N	0:01:43W	30QZD1719928766	NE30-16	T	MT		ML	09				N				INARAFOUDENE	I-n-Arafoudène	I-n-Arafoudene	INARAFOUDENE	I-n-Arafoudène	I-n-Arafoudene		2006-05-24	1,2,3,4,5	1			1993-09-01		
3	-1076990	-1598212	17.216667	-1.116667	17:13:00N	1:07:00W	30QYE0026604499	NE30-12	T	DUNE		ML	00				V				ZARAHFIAT	Zarah Fiat	Zarah Fiat	ZARAHFIAT	Zarah Fiat	Zarah Fiat		1993-12-18	1,2,3,4,5				1993-09-01		
3	-1076990	-1598211	17.216667	-1.116667	17:13:00N	1:07:00W	30QYE0026604499	NE30-12	T	DUNE		ML	00				N				ZARAFIAT	Zara Fiat	Zara Fiat	ZARAFIAT	Zara Fiat	Zara Fiat		1993-12-18	1,2,3,4,5	1			1993-09-01		
3	-1076988	-1598207	19.912222	2.854444	19:54:44N	2:51:16E	31QDC8476601774	NE31-02	T	HLL		ML	10				N			Adrar	ADRARTINZAOUATENE	Adrar Ti-n-Zaouâtene	Adrar Ti-n-Zaouatene	TINZAOUATENE ADRAR	Ti-n-Zaouâtene, Adrar	Ti-n-Zaouatene, Adrar		2007-04-04	1,2,3,4,5	1			2007-04-04		
3	-1076988	-1598205	19.912222	2.854444	19:54:44N	2:51:16E	31QDC8476601774	NE31-02	T	HLL		ML	10				V			Adrar	ADRARTINZAOUATEN	Adrar Tin Zaouaten	Adrar Tin Zaouaten	TINZAOUATEN ADRAR	Tin Zaouaten, Adrar	Tin Zaouaten, Adrar		2007-04-04	1,2,3,4,5				2007-04-04		
3	-1076192	-1597139	16.723056	-1.207222	16:43:23N	1:12:26W	30QXD9113349779	NE30-16	T	DUNE		ML	08				N				TITOLAOUINE	Titolaouine	Titolaouine	TITOLAOUINE	Titolaouine	Titolaouine		2006-05-23	1,2,3,4,5,6,7,8,9	1			1993-09-01		
3	-1076192	-1597138	16.723056	-1.207222	16:43:23N	1:12:26W	30QXD9113349779	NE30-16	T	DUNE		ML	08				V				TITOLAOUIN	Titolaouin	Titolaouin	TITOLAOUIN	Titolaouin	Titolaouin		2006-05-23	1,2,3,4,5,6,7,8,9				1993-09-01		
3	-1064041	-1579788	16.588611	.051111	16:35:19N	0:03:04E	31QAU8531736359	NE31-13	T	DUNE		ML	09				N				AGOUA	Ag Oua	Ag Oua	AGOUA	Ag Oua	Ag Oua		2006-06-08	1,2,3,4,5	1			1993-09-01		
3	-1065759	6445673	16.152222	3.735556	16:09:08N	3:44:08E	31QET7864085914	NE31-15	T	HLLS		ML	09				N				CHISSOAK	Chissoak	Chissoak	CHISSOAK	Chissoak	Chissoak		2006-06-20	1,2,3,4,5	1			1993-09-01		
3	-1065759	-1582228	16.152222	3.735556	16:09:08N	3:44:08E	31QET7864085914	NE31-15	T	HLLS		ML	09				V			Piton	PITONDECHISSOAK	Piton de Chissoak	Piton de Chissoak	CHISSOAK PITONDE	Chissoak, Piton de	Chissoak, Piton de		2006-06-20	1,2,3,4,5				1993-09-01		
3	-1065759	-1582226	16.152222	3.735556	16:09:08N	3:44:08E	31QET7864085914	NE31-15	T	HLLS		ML	09				V			Piton	PITONDECHISOAK	Piton de Chisoak	Piton de Chisoak	CHISOAK PITONDE	Chisoak, Piton de	Chisoak, Piton de		2006-06-20	1,2,3,4,5				1993-09-01		
3	-1068111	-1585382	16.8725	-.961389	16:52:21N	0:57:41W	30QYD1718166572	NE30-16	T	MESA		ML	09				N				GANDERAS	Gandéras	Ganderas	GANDERAS	Gandéras	Ganderas		2006-05-24	1,2,3,4,5	1			1993-09-01		
3	-1068106	-1585375	18.5	-.2	18:30:00N	0:12:00W	30QYF9566347799	NE30-08	T	DUNE		ML	00				N				DUNESDEGANATA	Dunes de Ganata	Dunes de Ganata	GANATA DUNESDE	Ganata, Dunes de	Ganata, Dunes de		1993-12-18	1,2,3,4,5	1			1993-09-01		
3	-1064121	-1579918	17.183333	2.433333	17:11:00N	2:26:00E	31QDU3974099924	NE31-10	T	TRGD		ML	00				N			Tâyert	TAYERTINAKOUNDAR	Tâyert i-n-Akoundar	Tayert i-n-Akoundar	AKOUNDAR TAYERTIN	Akoundar, Tâyert i-n-	Akoundar, Tayert i-n-		1993-12-18	1,2,3,4,5	1			1993-09-01		
3	-1075983	-1596795	16.096111	-.549722	16:05:46N	0:32:59W	30QYC6210181121	NE30-16	T	MT		ML	09				N				TINOUBE	Ti-n-Oubé	Ti-n-Oube	TINOUBE	Ti-n-Oubé	Ti-n-Oube		2006-05-24	1,2,3,4,5	1			1993-09-01		
3	-1075975	6719607	19.366944	2.238611	19:22:01N	2:14:19E	31QDB2003941606	NE31-02	T	MT		ML	10				N				INOGHA	I-n-Ogha	I-n-Ogha	INOGHA	I-n-Ogha	I-n-Ogha		2007-04-04	1,2,3,4,5,6,7	1			2007-04-04		
3	-1075975	6719606	19.366944	2.238611	19:22:01N	2:14:19E	31QDB2003941606	NE31-02	T	MT		ML	10				V				INORHA	I-n-Orha	I-n-Orha	INORHA	I-n-Orha	I-n-Orha		2007-04-04	1,2,3,4,5,6,7				2007-04-04		
3	-1075975	9350742	19.366944	2.238611	19:22:01N	2:14:19E	31QDB2003941606	NE31-02	T	MT		ML	10				V			Gara	GARATINORA	Gara Tinora	Gara Tinora	TINORA GARA	Tinora, Gara	Tinora, Gara		2007-04-04	1,2,3,4,5,6,7				2007-04-04		
3	-1075254	-1595604	16.256667	-1.961667	16:15:24N	1:57:42W	30QXC1095597608	NE30-15	T	SAND		ML	08				N				TAZIFIT	Tazifit	Tazifit	TAZIFIT	Tazifit	Tazifit		2006-05-23	1,2,3,4,5,6,7,8,9	1			1993-09-01		
3	-1068799	-1586447	20.104444	-.837222	20:06:16N	0:50:14W	30QYH2613024507	NF30-16	T	MESA		ML	10				N				INABEG	I-n-Abeg	I-n-Abeg	INABEG	I-n-Abeg	I-n-Abeg		2007-02-22	1,2,3,4,5	1			2007-02-22		
3	-1068799	-1586646	20.104444	-.837222	20:06:16N	0:50:14W	30QYH2613024507	NF30-16	T	MESA		ML	10				V				INEABEG	Ine Abeg	Ine Abeg	INEABEG	Ine Abeg	Ine Abeg		2007-02-22	1,2,3,4,5				2007-02-22		
3	-1068948	-1586718	18.005833	2.522778	18:00:21N	2:31:22E	31QDV4948190896	NE31-06	T	SCRP		ML	10				N				INESSELSEL	I-n-Esselsel	I-n-Esselsel	INESSELSEL	I-n-Esselsel	I-n-Esselsel		2006-06-08	1,2,3,4,5	1			1993-09-01		
3	-1068948	-1586710	18.005833	2.522778	18:00:21N	2:31:22E	31QDV4948190896	NE31-06	T	SCRP		ML	10				V				INESELSEL	In Eselsel	In Eselsel	INESELSEL	In Eselsel	In Eselsel		2006-06-08	1,2,3,4,5				1993-09-01		
3	-1065714	-1582159	16.78	-1.385556	16:46:48N	1:23:08W	30QXD7206555918	NE30-16	T	DUNE		ML	08				N				CHATATARAM	Chatataram	Chatataram	CHATATARAM	Chatataram	Chatataram		2006-05-23	1,2,3,4,5	1			1993-09-01		
3	-1065707	-1582149	16.120278	-1.193611	16:07:13N	1:11:37W	30QXC9318083086	NE30-16	T	DUNE		ML	08				N				CHAFAGADO	Chafagado	Chafagado	CHAFAGADO	Chafagado	Chafagado		2006-05-23	1,2,3,4,5,6,7,8,9	1			1993-09-01		
3	-1076901	-1598075	20.675278	1.051944	20:40:31N	1:03:07E	31QBC9707787429	NF31-13	T	REG		ML	10				N			Reg	REGDEZAKI	Reg de Zaki	Reg de Zaki	ZAKI REGDE	Zaki, Reg de	Zaki, Reg de		2007-02-01	1,2,3,4,5	1			2005-04-07		
3	-1076140	-1597052	20.260556	1.027222	20:15:38N	1:01:38E	31QBC9394841544	NF31-13	T	HLLS		ML	10				N			Adrar	ADRARTIRAOUANINE	Adrar Tiraouanine	Adrar Tiraouanine	TIRAOUANINE ADRAR	Tiraouanine, Adrar	Tiraouanine, Adrar		2007-02-22	1,2,3,4,5	1			2007-02-22		
3	-1076140	9269832	20.260556	1.027222	20:15:38N	1:01:38E	31QBC9394841544	NF31-13	T	HLLS		ML	10				V				ADRARTIRAVANIN	Adrar-Tiravanin	Adrar-Tiravanin	TIRAVANIN ADRAR	Tiravanin, Adrar-	Tiravanin, Adrar-		2007-02-22	1,2,3,4,5				2007-02-22		
3	-1076140	-1597050	20.260556	1.027222	20:15:38N	1:01:38E	31QBC9394841544	NF31-13	T	HLLS		ML	10				V				ADRARTIRAOUANIN	Adrar Tiraouanin	Adrar Tiraouanin	TIRAOUANIN ADRAR	Tiraouanin, Adrar	Tiraouanin, Adrar		2007-02-22	1,2,3,4,5				2007-02-22		
3	-1076136	6719568	19.877222	2.473056	19:52:38N	2:28:23E	31QDB4483697981	NE31-02	T	MT		ML	10				N				TIGHABERT	Tighabert	Tighabert	TIGHABERT	Tighabert	Tighabert		2007-04-04	1,2,3,4,5	1			2007-04-04		
3	-1076136	9350740	19.877222	2.473056	19:52:38N	2:28:23E	31QDB4483697981	NE31-02	T	MT		ML	10				V				TIRABERT	Tirabert	Tirabert	TIRABERT	Tirabert	Tirabert		2007-04-04	1,2,3,4,5				2007-04-04		
3	-1076128	-1597032	19.625	2.3	19:37:30N	2:18:00E	31QDB2660370135	NE31-02	T	HLL		ML	10				N				TIOUINE	Tiouine	Tiouine	TIOUINE	Tiouine	Tiouine		2007-04-04	1,2,3,4,5	1			2007-04-04		
3	-1076128	-1597026	19.625	2.3	19:37:30N	2:18:00E	31QDB2660370135	NE31-02	T	HLL		ML	10				V				TIOUIHIN	Tiouihin	Tiouihin	TIOUIHIN	Tiouihin	Tiouihin		2007-04-04	1,2,3,4,5				2007-04-04		
3	-1076128	-1597029	19.625	2.3	19:37:30N	2:18:00E	31QDB2660370135	NE31-02	T	HLL		ML	10				V				TIOUIN	Tiouin	Tiouin	TIOUIN	Tiouin	Tiouin		2007-04-04	1,2,3,4,5				2007-04-04		
3	-1076128	-1597027	19.625	2.3	19:37:30N	2:18:00E	31QDB2660370135	NE31-02	T	HLL		ML	10				V				TIOUIINE	Tiouiine	Tiouiine	TIOUIINE	Tiouiine	Tiouiine		2007-04-04	1,2,3,4,5				2007-04-04		
3	-1076128	9271164	19.625	2.3	19:37:30N	2:18:00E	31QDB2660370135	NE31-02	T	HLL		ML	10				V	rus		Gora	GORATIVIN	Gora Tivin	Gora Tivin	TIVIN GORA	Tivin, Gora	Tivin, Gora		2007-04-04	1,2,3,4,5				2007-04-04		
3	-1063933	6407246	18.867222	1.366389	18:52:02N	1:21:59E	31QCA2790886929	NE31-05	T	HLL		ML	10				N				ADACHOU	Ad-Achou	Ad-Achou	ADACHOU	Ad-Achou	Ad-Achou		2006-06-02	1,2,3,4,5	1			1993-09-01		
3	-1063933	-1579629	18.867222	1.366389	18:52:02N	1:21:59E	31QCA2790886929	NE31-05	T	HLL		ML	10				V				ADRARACHCHOU	Adrar Achchou	Adrar Achchou	ADRARACHCHOU	Adrar Achchou	Adrar Achchou		2006-06-02	1,2,3,4,5				1993-09-01		
3	-1063933	-1579635	18.867222	1.366389	18:52:02N	1:21:59E	31QCA2790886929	NE31-05	T	HLL		ML	10				V				ADRARACHOU	Adrar Achou	Adrar Achou	ADRARACHOU	Adrar Achou	Adrar Achou		2006-06-02	1,2,3,4,5				1993-09-01		
3	-1063926	-1579617	17.716667	-2.6	17:43:00N	2:36:00W	30QWE4241258884	NE30-11	T	DUNE		ML	08				N				ACHAMOLELKAHAL	Achamol el Kahal	Achamol el Kahal	ACHAMOLELKAHAL	Achamol el Kahal	Achamol el Kahal		2007-02-07	1,2,3,4,5	1			1993-09-01		
3	-1063926	-1582155	17.716667	-2.6	17:43:00N	2:36:00W	30QWE4241258884	NE30-11	T	DUNE		ML	08				V				ADRARCHAMOLELKAHAL	Adrar Chamol el Kahal	Adrar Chamol el Kahal	CHAMOLELKAHAL ADRAR	Chamol el Kahal, Adrar	Chamol el Kahal, Adrar		2007-02-07	1,2,3,4,5				1993-09-01		
3	-1073069	-1592544	23.25	-3.833333	23:15:00N	3:50:00W	30QVL1475571440	NF30-02	T	ERG		ML	00				V				ERGOUMELKSI	Erg Oum el Ksi	Erg Oum el Ksi	OUMELKSI ERG	Oum el Ksi, Erg	Oum el Ksi, Erg		1993-12-18	1,2,3,4,5				1993-09-01		
3	-1073069	-1592558	23.25	-3.833333	23:15:00N	3:50:00W	30QVL1475571440	NF30-02	T	ERG		ML	00				N				ERGOUMMELKSI	’Erg Oumm el Ksi	'Erg Oumm el Ksi	OUMMELKSI ERG	Oumm el Ksi, ’Erg	Oumm el Ksi, 'Erg		1993-12-18	1,2,3,4,5	1			1993-09-01		
3	-1073069	-1591027	23.25	-3.833333	23:15:00N	3:50:00W	30QVL1475571440	NF30-02	T	ERG		ML	00				V				ERGMOULKSINE	Erg Moulksine	Erg Moulksine	MOULKSINE ERG	Moulksine, Erg	Moulksine, Erg		1993-12-18	1,2,3,4,5				1993-09-01		
3	-1069324	-1587383	16.950278	-.309444	16:57:01N	0:18:34W	30QYD8655576017	NE30-16	T	DUNE		ML	09				N				KADARKA	Kadarka	Kadarka	KADARKA	Kadarka	Kadarka		2006-05-24	1,2,3,4,5	1			1993-09-01		
3	-1069321	-1587379	16.034722	-1.344444	16:02:05N	1:20:40W	30QXC7712173483	NE30-16	T	DUNE		ML	08				N				KACHAMANOU	Kachamanou	Kachamanou	KACHAMANOU	Kachamanou	Kachamanou		2006-05-23	1,2,3,4,5,6,7,8,9	1			1993-09-01		
3	-1073015	-1592459	16.826111	-1.919722	16:49:34N	1:55:11W	30QXD1510060633	NE30-15	T	DUNE		ML	08				N				OUELETBARHIA	Ouelet Barhia	Ouelet Barhia	OUELETBARHIA	Ouelet Barhia	Ouelet Barhia		2006-05-23	1,2,3,4,5,6,7,8,9	1			1993-09-01		
3	-1073005	-1592445	19.848889	2.089722	19:50:56N	2:05:23E	31QDB0468795017	NE31-02	T	MT		ML	10				V				OUDJIANADRAR	Oudjian Adrar	Oudjian Adrar	OUDJIANADRAR	Oudjian Adrar	Oudjian Adrar		2007-04-04	1,2,3,4,5				2007-04-04		
3	-1073005	-1592441	19.848889	2.089722	19:50:56N	2:05:23E	31QDB0468795017	NE31-02	T	MT		ML	10				N				OUDJANE	Oudjane	Oudjane	OUDJANE	Oudjane	Oudjane		2007-04-04	1,2,3,4,5	1			2007-04-04		
3	-1073005	-1592440	19.848889	2.089722	19:50:56N	2:05:23E	31QDB0468795017	NE31-02	T	MT		ML	10				V				OUDJAN	Oudjan	Oudjan	OUDJAN	Oudjan	Oudjan		2007-04-04	1,2,3,4,5				2007-04-04		
3	-1073005	-1592442	19.848889	2.089722	19:50:56N	2:05:23E	31QDB0468795017	NE31-02	T	MT		ML	10				V			Mont	MONTOUDJANE	Mont Oudjane	Mont Oudjane	OUDJANE MONT	Oudjane, Mont	Oudjane, Mont		2007-04-04	1,2,3,4,5				2007-04-04		
3	-1073947	-1593784	16.633333	-2.416667	16:38:00N	2:25:00W	30QWD6221239084	NE30-15	T	DUNE		ML	00				N				SENAY	Senay	Senay	SENAY	Senay	Senay		1993-12-18	1,2,3,4,5	1			1993-09-01		
3	-1073925	-1593755	18.1	-1.1	18:06:00N	1:06:00W	30QYF0105502285	NE30-08	T	HLLS		ML	00				N				PITONSDESELLASEI	Pitons de Sellaseï	Pitons de Sellasei	SELLASEI PITONSDE	Sellaseï, Pitons de	Sellasei, Pitons de		1993-12-18	1,2,3,4,5	1			1993-09-01		
3	-1073925	-1593905	18.1	-1.1	18:06:00N	1:06:00W	30QYF0105502285	NE30-08	T	HLLS		ML	00				V				PITONSDESETTASEI	Pitons de Settasei	Pitons de Settasei	SETTASEI PITONSDE	Settasei, Pitons de	Settasei, Pitons de		1993-12-18	1,2,3,4,5				1993-09-01		
3	-1069854	-1588121	12.9	-9.15	12:54:00N	9:09:00W	29PMQ8372726082	ND29-14	T	HLL		ML	00				N				KEMETAKOUROU	Kéméta Kourou	Kemeta Kourou	KEMETAKOUROU	Kéméta Kourou	Kemeta Kourou		1993-12-18	1,2,3,4,5	1			1993-09-01		
3	-1069849	-1588113	17.383333	-1.45	17:23:00N	1:27:00W	30QXE6466522628	NE30-12	T	DUNE		ML	09				N			Nebket	NEBKETKEMBES	Nebket Kembes	Nebket Kembes	NEBKETKEMBES	Nebket Kembes	Nebket Kembes		2006-06-08	1,2,3,4,5	1			1993-09-01		
3	-1069849	-1588114	17.383333	-1.45	17:23:00N	1:27:00W	30QXE6466522628	NE30-12	T	DUNE		ML	09				V				NEBKETKEMBEUS	Nebket Kembeus	Nebket Kembeus	KEMBEUS NEBKET	Kembeus, Nebket	Kembeus, Nebket		2006-06-08	1,2,3,4,5				1993-09-01		
3	-1065407	-1581762	16.55	-2.2	16:33:00N	2:12:00W	30QWD8535829945	NE30-15	T	HLL		ML	00				V				MONTBORNA	Mont Borna	Mont Borna	BORNA MONT	Borna, Mont	Borna, Mont		1993-12-18	1,2,3,4,5				1993-09-01		
3	-1065407	-1581761	16.55	-2.2	16:33:00N	2:12:00W	30QWD8535829945	NE30-15	T	HLL		ML	00				N				BORNA	Borna	Borna	BORNA	Borna	Borna		1993-12-18	1,2,3,4,5	1			1993-09-01		
3	-1066121	-1582692	19.874167	.904444	19:52:27N	0:54:16E	31QBB8058298921	NE31-01	T	HLLS		ML	10				N			Adrar	ADRARINDERSET	Adrar I-n-Derset	Adrar I-n-Derset	DERSET ADRARIN	Derset, Adrar I-n-	Derset, Adrar I-n-		2007-02-28	1,2,3,4,5	1			2005-04-07		
3	-1066114	-1582684	16.811944	.6175	16:48:43N	0:37:03E	31QBU4608660279	NE31-13	T	MESA		ML	09				N				DERAK	Dérak	Derak	DERAK	Dérak	Derak		2006-06-08	1,2,3,4,5	1			1993-09-01		
3	-1069804	-1588037	16.231667	-1.941944	16:13:54N	1:56:31W	30QXC1307794853	NE30-15	T	SAND		ML	08				N				KAZOULIA	Kazoulia	Kazoulia	KAZOULIA	Kazoulia	Kazoulia		2006-05-23	1,2,3,4,5,6,7,8,9	1			1993-09-01		
3	-1067352	-1584318	19.773889	-3.796667	19:46:26N	3:47:48W	30QVG1654486656	NE30-02	T	ERG		ML	08				V				ELHOUID	El Houid	El Houid	ELHOUID	El Houid	El Houid		2007-03-16	1,2,3,4,5				2007-03-16		
3	-1067352	-1584369	19.773889	-3.796667	19:46:26N	3:47:48W	30QVG1654486656	NE30-02	T	ERG		ML	08				N				ELOUID	El Ouid	El Ouid	ELOUID	El Ouid	El Ouid		2007-03-16	1,2,3,4,5	1			2007-03-16		
3	-1074492	-1594507	10.65	-7.033333	10:39:00N	7:02:00W	29PQM1513577963	NC29-08	T	HLL		ML	00				N				SOKOUROU	So Kourou	So Kourou	SOKOUROU	So Kourou	So Kourou		1993-12-18	1,2,3,4,5	1			1993-09-01		
3	-1070762	-1589322	12.283333	-9.933333	12:17:00N	9:56:00W	29PLP9850158060	ND29-14	T	HLL		ML	00				N				KOUROUNIKOUKANA	Kourouni Koukana	Kourouni Koukana	KOUKANA KOUROUNI	Koukana, Kourouni	Koukana, Kourouni		1993-12-18	1,2,3,4,5	1			1993-09-01		
3	-1075223	-1595566	16.5825	-1.348889	16:34:57N	1:20:56W	30QXD7615534095	NE30-16	T	SAND		ML	08				N				TASSARALT	Tassaralt	Tassaralt	TASSARALT	Tassaralt	Tassaralt		2006-05-23	1,2,3,4,5,6,7,8,9	1			1993-09-01		
3	-1067293	-1584261	16.012778	-1.222778	16:00:46N	1:13:22W	30QXC9016271163	NE30-16	T	HLL		ML	08				N				EKIA	Ekia	Ekia	EKIA	Ekia	Ekia		2006-05-23	1,2,3,4,5,6,7,8,9	1			1993-09-01		
3	-1067293	-1586195	16.012778	-1.222778	16:00:46N	1:13:22W	30QXC9016271163	NE30-16	T	HLL		ML	08				V				HEKIA	Hékia	Hekia	HEKIA	Hékia	Hekia		2006-05-23	1,2,3,4,5,6,7,8,9				1993-09-01		
3	-1067395	-1584437	21.366667	.483333	21:22:00N	0:29:00E	31QBD3902864818	NF31-09	T	ERG		ML	10				V				ERGERHEBEB	’Erg Érhebeb	'Erg Erhebeb	ERGERHEBEB	’Erg Érhebeb	'Erg Erhebeb		2006-06-08	1,2,3,4,5				1993-09-01		
3	-1067395	-1584417	21.366667	.483333	21:22:00N	0:29:00E	31QBD3902864818	NF31-09	T	ERG		ML	10				N			Erg	ERGEREBEB	Erg Erebeb	Erg Erebeb	EREBEB ERG	Erebeb, Erg	Erebeb, Erg		2006-06-08	1,2,3,4,5	1			1993-09-01		
3	-1063991	-1579719	19.7	2.233333	19:42:00N	2:14:00E	31QDB1965078465	NE31-02	T	MT		ML	10				N				AFARENZELOU	Afarenzelou	Afarenzelou	AFARENZELOU	Afarenzelou	Afarenzelou		2007-04-04	1,2,3,4,5	1			2007-04-04		
3	-1063988	-1579716	21.313611	.642222	21:18:49N	0:38:32E	31QBD5542358686	NF31-09	T	ERG		ML	10				N			’Erg	ERGINAFARAK	’Erg I-n-Afarak	'Erg I-n-Afarak	INAFARAK ERG	I-n-Afarak, ’Erg	I-n-Afarak, 'Erg		2006-09-20	1,2,3,4,5	1			2006-09-20		
3	-1064097	-1579880	16.275278	-1.754722	16:16:31N	1:45:17W	30QXC3305999791	NE30-15	T	DUNE		ML	08				N				AKANGADIT	Akangadit	Akangadit	AKANGADIT	Akangadit	Akangadit		2006-05-23	1,2,3,4,5,6,7,8,9	1			1993-09-01		
3	-1064095	-1579876	16.661389	-1.354167	16:39:41N	1:21:15W	30QXD7552042820	NE30-16	T	DUNE		ML	08				N				AKAKAS	Akakas	Akakas	AKAKAS	Akakas	Akakas		2006-05-23	1,2,3,4,5,6,7,8,9	1			1993-09-01		
3	-1064088	-1579867	21.199444	.755556	21:11:58N	0:45:20E	31QBD6700545872	NF31-09	T	MESA		ML	10				V				AITNEFANE	Aït Nefâne	Ait Nefane	AITNEFANE	Aït Nefâne	Ait Nefane		2006-09-20	1,2,3,4,5				2006-09-20		
3	-1064088	-1579866	21.199444	.755556	21:11:58N	0:45:20E	31QBD6700545872	NF31-09	T	MESA		ML	10				N				AITNEFAN	Ait Néfan	Ait Nefan	AITNEFAN	Ait Néfan	Ait Nefan		2006-09-20	1,2,3,4,5	1			2006-09-20		
3	-1064088	-1579865	21.199444	.755556	21:11:58N	0:45:20E	31QBD6700545872	NF31-09	T	MESA		ML	10				V				AITNAFANE	Aït Nafane	Ait Nafane	AITNAFANE	Aït Nafane	Ait Nafane		2006-09-20	1,2,3,4,5				2006-09-20		
3	-1064088	-1579864	21.199444	.755556	21:11:58N	0:45:20E	31QBD6700545872	NF31-09	T	MESA		ML	10				V				AITNAFA	Aït Nafa	Ait Nafa	AITNAFA	Aït Nafa	Ait Nafa		2006-09-20	1,2,3,4,5				2006-09-20		
3	-1064084	-1579856	21.166667	.7	21:10:00N	0:42:00E	31QBD6118242325	NF31-09	T	HLL		ML	10				V				AIRNAGGANE	Aïr Naggane	Air Naggane	AIRNAGGANE	Aïr Naggane	Air Naggane		2006-06-08	1,2,3,4,5				1993-09-01		
3	-1064084	-1579855	21.166667	.7	21:10:00N	0:42:00E	31QBD6118242325	NF31-09	T	HLL		ML	10				N				AIRNAGGAN	Air Naggan	Air Naggan	AIRNAGGAN	Air Naggan	Air Naggan		2006-06-08	1,2,3,4,5	1			1993-09-01		
3	-1068774	6642834	19.091389	.831944	19:05:29N	0:49:55E	31QBB7189412352	NE31-01	T	HLL		ML	10				V				IMAKARADEN	Imakaraden	Imakaraden	IMAKARADEN	Imakaraden	Imakaraden		2007-03-06	1,2,3,4,5				2007-03-06		
3	-1068774	-1586400	19.091389	.831944	19:05:29N	0:49:55E	31QBB7189412352	NE31-01	T	HLL		ML	10				N				IMAKARADENE	Imakaradene	Imakaradene	IMAKARADENE	Imakaradene	Imakaradene		2007-03-06	1,2,3,4,5	1			2007-03-06		
3	-1068774	9262474	19.091389	.831944	19:05:29N	0:49:55E	31QBB7189412352	NE31-01	T	HLL		ML	10				V			Gora	GORAIMAKARADEN	Gora Imakaraden	Gora Imakaraden	IMAKARADEN GORA	Imakaraden, Gora	Imakaraden, Gora		2007-03-06	1,2,3,4,5				2007-03-06		
3	-1068774	-1586399	19.091389	.831944	19:05:29N	0:49:55E	31QBB7189412352	NE31-01	T	HLL		ML	10				V			Adrar	ADRARIMAKARADEN	Adrar Imakaraden	Adrar Imakaraden	IMAKARADEN ADRAR	Imakaraden, Adrar	Imakaraden, Adrar		2007-03-06	1,2,3,4,5				2007-03-06		
3	-1070679	-1589204	19.038333	-1.195278	19:02:18N	1:11:43W	30QXG8992806045	NE30-04	T	ERG		ML	08				V				ERGELKORZA	’Erg el Korza	'Erg el Korza	KORZA ERGEL	Korza, ’Erg el	Korza, 'Erg el		2007-02-23	1,2,3,4,5				2005-04-07		
3	-1070679	-1589207	19.038333	-1.195278	19:02:18N	1:11:43W	30QXG8992806045	NE30-04	T	ERG		ML	08				N			’Erg	ERGELKORZI	’Erg el Korzi	'Erg el Korzi	KORZI ERGEL	Korzi, ’Erg el	Korzi, 'Erg el		2007-02-23	1,2,3,4,5	1			2005-04-07		
3	-1075316	-1595704	19.428333	.954444	19:25:42N	0:57:16E	31QBB8522749498	NE31-01	T	HLL		ML	10				N			Adrar	ADRARTEKAMTEKAMT	Adrar Tekamtekamt	Adrar Tekamtekamt	TEKAMTEKAMT ADRAR	Tekamtekamt, Adrar	Tekamtekamt, Adrar		2007-03-02	1,2,3,4,5	1			2005-04-07		
1	-1075120	-1595401	16.903889	.759167	16:54:14N	0:45:33E	31QBU6130670281	NE31-13	T	DUNE		ML	09				V				TANGUELOUTINE	Tangueloutine	Tangueloutine	TANGUELOUTINE	Tangueloutine	Tangueloutine		2006-06-08	1,2,3,4,5				2011-05-23		
1	-1075120	-1595393	16.903889	.759167	16:54:14N	0:45:33E	31QBU6130670281	NE31-13	T	DUNE		ML	09				N				TANGELOUTIN	Tangeloutin	Tangeloutin	TANGELOUTIN	Tangeloutin	Tangeloutin		2006-06-08	1,2,3,4,5	1			1993-09-01		
3	-1075773	-1596448	16.015833	-1.345556	16:00:57N	1:20:44W	30QXC7701971392	NE30-16	T	DUNE		ML	08				N				TINARAB	Ti-n-Arab	Ti-n-Arab	TINARAB	Ti-n-Arab	Ti-n-Arab		2006-05-23	1,2,3,4,5,6,7,8,9	1			1993-09-01		
3	-1075720	-1596375	16.933333	-1.466667	16:56:00N	1:28:00W	30QXD6328772817	NE30-16	T	DUNE		ML	08				N				TINAFAROT	Ti-n-Afarot	Ti-n-Afarot	TINAFAROT	Ti-n-Afarot	Ti-n-Afarot		2006-05-23	1,2,3,4,5,6,7,8,9	1			1993-09-01		
3	-1067901	-1585101	10.45	-7.066667	10:27:00N	7:04:00W	29PQM1162455815	NC29-08	T	HLL		ML	00				N				FLASSOKOUROU	Flasso Kourou	Flasso Kourou	FLASSOKOUROU	Flasso Kourou	Flasso Kourou		1993-12-18	1,2,3,4,5	1			1993-09-01		
3	-1063916	-1579603	17.5	-1.083333	17:30:00N	1:05:00W	30QYE0349935893	NE30-12	T	DUNE		ML	00				N				NEBKETABOURHECH	Nebket Abourhech	Nebket Abourhech	ABOURHECH NEBKET	Abourhech, Nebket	Abourhech, Nebket		1993-12-18	1,2,3,4,5	1			1993-09-01		
3	-1068580	-1586061	12.683333	-9.5	12:41:00N	9:30:00W	29PMQ4571102169	ND29-14	T	HLL		ML	00				N				GUINNBALA	Guinnbala	Guinnbala	GUINNBALA	Guinnbala	Guinnbala		1993-12-18	1,2,3,4,5	1			1993-09-01		
3	-1064187	-1580013	16.7425	-.6725	16:44:33N	0:40:21W	30QYD4814052522	NE30-16	T	DUNE		ML	09				N				AMAFIF	Amafif	Amafif	AMAFIF	Amafif	Amafif		2006-05-24	1,2,3,4,5	1			1993-09-01		
3	-1068926	-1586674	16.746667	-.593333	16:44:48N	0:35:36W	30QYD5657853084	NE30-16	T	DUNE		ML	09				N				INEECH	I-n-Eèch	I-n-Eech	INEECH	I-n-Eèch	I-n-Eech		2006-05-24	1,2,3,4,5	1			1993-09-01		
3	-1071392	-1590140	16.213889	-5.1	16:12:50N	5:06:00W	30QTC7551693744	NE30-13	T	SLP		ML	08				N				MAHRADFARKOU	Mahrad Farkou	Mahrad Farkou	MAHRADFARKOU	Mahrad Farkou	Mahrad Farkou		2007-05-21	1,2,3,4,5	1			2007-05-21		
3	-1076000	-1596830	21.05	.05	21:03:00N	0:03:00E	31QAD9341130518	NF31-09	T	SCRP		ML	10				V				TINRHATANE	Ti-n-Rhatane	Ti-n-Rhatane	TINRHATANE	Ti-n-Rhatane	Ti-n-Rhatane		2006-06-08	1,2,3,4,5				1993-09-01		
3	-1076000	-1596829	21.05	.05	21:03:00N	0:03:00E	31QAD9341130518	NF31-09	T	SCRP		ML	10				N				TINRHATAN	Ti-n-Rhatan	Ti-n-Rhatan	TINRHATAN	Ti-n-Rhatan	Ti-n-Rhatan		2006-06-08	1,2,3,4,5	1			1993-09-01		
3	-1076000	-1592886	21.05	.05	21:03:00N	0:03:00E	31QAD9341130518	NF31-09	T	SCRP		ML	10				V				FALAISEDETINRHATANE	Falaise de tin Rhâtane	Falaise de tin Rhatane	RHATANE FALAISEDETIN	Rhâtane, Falaise de tin	Rhatane, Falaise de tin		2006-06-08	1,2,3,4,5				1993-09-01		
3	-1075986	-1596800	18.15	1.516667	18:09:00N	1:31:00E	31QCA4309007414	NE31-06	T	HLL		ML	10				N				TINOUERANE	Ti-n-Ouerâne	Ti-n-Ouerane	TINOUERANE	Ti-n-Ouerâne	Ti-n-Ouerane		2006-06-02	1,2,3,4,5	1			1993-09-01		
3	-1075986	-1596790	18.15	1.516667	18:09:00N	1:31:00E	31QCA4309007414	NE31-06	T	HLL		ML	10				V				TINOUARAN	Tin Ouaran	Tin Ouaran	TINOUARAN	Tin Ouaran	Tin Ouaran		2006-06-02	1,2,3,4,5				1993-09-01		
3	-1075986	-1596797	18.15	1.516667	18:09:00N	1:31:00E	31QCA4309007414	NE31-06	T	HLL		ML	10				V				TINOUERAN	Tin-Oueran	Tin-Oueran	TINOUERAN	Tin-Oueran	Tin-Oueran		2006-06-02	1,2,3,4,5				1993-09-01		
3	-1075985	-1596792	17.3	-1.366667	17:18:00N	1:22:00W	30QXE7359813479	NE30-12	T	DUNE		ML	00				V				TINOUARANE	Tin Ouarane	Tin Ouarane	TINOUARANE	Tin Ouarane	Tin Ouarane		1993-12-18	1,2,3,4,5				1993-09-01		
3	-1075985	-1596799	17.3	-1.366667	17:18:00N	1:22:00W	30QXE7359813479	NE30-12	T	DUNE		ML	00				N				TINOUERANE	Ti-n-Ouerâne	Ti-n-Ouerane	TINOUERANE	Ti-n-Ouerâne	Ti-n-Ouerane		1993-12-18	1,2,3,4,5	1			1993-09-01		
3	-1075862	-1596585	16.35	.233333	16:21:00N	0:14:00E	31QBU0441309661	NE31-13	T	DUNE		ML	00				N				TINEGDAD	Ti-n-Egdad	Ti-n-Egdad	TINEGDAD	Ti-n-Egdad	Ti-n-Egdad		1993-12-18	1,2,3,4,5	1			1993-09-01		
3	-1064623	-1580707	17.119167	1.7175	17:07:09N	1:43:03E	31QCU6356493187	NE31-10	T	DPR		ML	09				V				BAKRI	Bakri	Bakri	BAKRI	Bakri	Bakri		2006-06-01	1,2,3,4,5				1993-09-01		
3	-1064623	6407205	17.119167	1.7175	17:07:09N	1:43:03E	31QCU6356493187	NE31-10	T	DPR		ML	09				N				BAKHI	Bakhi	Bakhi	BAKHI	Bakhi	Bakhi		2006-06-01	1,2,3,4,5	1			1993-09-01		
3	-1072983	-1592604	18.226667	-.626944	18:13:36N	0:37:37W	30QYF5095316890	NE30-08	T	SCRP		ML	09				V				ADRAROUORTAZALETT	Adrar Ouortazalett	Adrar Ouortazalett	OUORTAZALETT ADRAR	Ouortazalett, Adrar	Ouortazalett, Adrar		2006-10-05	1,2,3,4,5				2006-10-05		
3	-1072983	-1592404	18.226667	-.626944	18:13:36N	0:37:37W	30QYF5095316890	NE30-08	T	SCRP		ML	09				N				ADRAROUARTAZALETT	Adrar Ouartazalett	Adrar Ouartazalett	OUARTAZALETT ADRAR	Ouartazalett, Adrar	Ouartazalett, Adrar		2006-10-05	1,2,3,4,5	1			2006-10-05		
3	-1072724	-1592021	12.45	-9.533333	12:27:00N	9:32:00W	29PMP4203976373	ND29-14	T	HLL		ML	00				N				NOUMOULAKO	Noumoulako	Noumoulako	NOUMOULAKO	Noumoulako	Noumoulako		1993-12-18	1,2,3,4,5	1			1993-09-01		
3	-1076493	-1597525	17.351389	-2.393333	17:21:05N	2:23:36W	30QWE6445518530	NE30-11	T	TRGD		ML	08				N			Tayert	TAYERTINTOURCHAOUINE	Tayert I-n-Tourchaouine	Tayert I-n-Tourchaouine	TOURCHAOUINE TAYERTIN	Tourchaouine, Tayert I-n-	Tourchaouine, Tayert I-n-		2007-02-07	1,2,3,4,5	1			1993-09-01		
3	-1076493	13980647	17.351389	-2.393333	17:21:05N	2:23:36W	30QWE6445518530	NE30-11	T	TRGD		ML	08				V				TAYERTINTOURCHAOUINE	Tayert in Tourchaouine	Tayert in Tourchaouine	TOURCHAOUINE TAYERTIN	Tourchaouine, Tayert in	Tourchaouine, Tayert in		2007-02-07	1,2,3,4,5				2012-11-01		
3	-1069717	-1587923	16.501944	-.185	16:30:07N	0:11:06W	30QZD0052026557	NE30-16	T	DUNE		ML	09				N				KASMANADJI	Kasmanadji	Kasmanadji	KASMANADJI	Kasmanadji	Kasmanadji		2006-05-24	1,2,3,4,5	1			1993-09-01		
3	-1073357	-1592979	16.154444	-1.185556	16:09:16N	1:11:08W	30QXC9400886874	NE30-16	T	SAND		ML	08				N				SAFANGA	Safanga	Safanga	SAFANGA	Safanga	Safanga		2006-05-23	1,2,3,4,5,6,7,8,9	1			1993-09-01		
3	-1073665	-1593400	10.75	-7.15	10:45:00N	7:09:00W	29PQM0230288946	NC29-08	T	HLL		ML	00				N				SANKOUROU	San Kourou	San Kourou	SANKOUROU	San Kourou	San Kourou		1993-12-18	1,2,3,4,5	1			1993-09-01		
3	-1071627	-1590449	20.132222	1.711667	20:07:56N	1:42:42E	31QCC6533826634	NF31-14	T	HLLS		ML	10				N			Adrar	ADRARMARERIS	Adrar Mareris	Adrar Mareris	MARERIS ADRAR	Mareris, Adrar	Mareris, Adrar		2007-02-02	1,2,3,4,5	1			2005-04-07		
3	-1071627	6609133	20.132222	1.711667	20:07:56N	1:42:42E	31QCC6533826634	NF31-14	T	HLLS		ML	10				V				ADRARMARIONET	Adrar Marionet	Adrar Marionet	MARIONET ADRAR	Marionet, Adrar	Marionet, Adrar		2007-02-02	1,2,3,4,5				2005-04-07		
3	-1071627	-1590477	20.132222	1.711667	20:07:56N	1:42:42E	31QCC6533826634	NF31-14	T	HLLS		ML	10				V				MONTMARIS	Mont Maris	Mont Maris	MARIS MONT	Maris, Mont	Maris, Mont		2007-02-02	1,2,3,4,5				2005-04-07		
3	-1071627	-1590476	20.132222	1.711667	20:07:56N	1:42:42E	31QCC6533826634	NF31-14	T	HLLS		ML	10				V				ADRARMARIOUET	Adrar Mariouet	Adrar Mariouet	MARIOUET ADRAR	Mariouet, Adrar	Mariouet, Adrar		2007-02-02	1,2,3,4,5				2005-04-07		
3	-1075663	-1596289	19.195556	-.127778	19:11:44N	0:07:40W	30QZG0204624956	NE30-04	T	TRGD		ML	10				V				TILLERIENE	Tilleriene	Tilleriene	TILLERIENE	Tilleriene	Tilleriene		2007-02-27	1,2,3,4,5				2005-04-07		
3	-1075663	6634222	19.195556	-.127778	19:11:44N	0:07:40W	30QZG0204624956	NE30-04	T	TRGD		ML	10				N				TINELARIENE	Ti-n-Elariene	Ti-n-Elariene	TINELARIENE	Ti-n-Elariene	Ti-n-Elariene		2007-02-27	1,2,3,4,5	1			2005-04-07		
3	-1075663	9260566	19.195556	-.127778	19:11:44N	0:07:40W	30QZG0204624956	NE30-04	T	TRGD		ML	10				V				TINELARIEN	Tin-Elarien	Tin-Elarien	TINELARIEN	Tin-Elarien	Tin-Elarien		2007-02-27	1,2,3,4,5				2005-04-07		
3	-1075660	-1587131	17.355833	1.969444	17:21:21N	1:58:10E	31QCV9050919214	NE31-10	T	DUNE		ML	09				V				INTILL	In Till	In Till	INTILL	In Till	In Till		2006-06-01	1,2,3,4,5,6,7				1993-09-01		
3	-1075660	14133699	17.355833	1.969444	17:21:21N	1:58:10E	31QCV9050919214	NE31-10	T	DUNE		ML	09				V			Dune	DUNEDINTIL	Dune d’In Til	Dune d'In Til	TIL DUNEDIN	Til, Dune d’In	Til, Dune d'In		2006-06-01	1,2,3,4,5,6,7				2013-03-05		
3	-1075660	-1596284	17.355833	1.969444	17:21:21N	1:58:10E	31QCV9050919214	NE31-10	T	DUNE		ML	09				V			Dune	DUNEDINTILL	Dune d’i-n-Till	Dune d'i-n-Till	TILL DUNEDIN	Till, Dune d’i-n-	Till, Dune d'i-n-		2006-06-01	1,2,3,4,5,6,7				1993-09-01		
3	-1075660	6407204	17.355833	1.969444	17:21:21N	1:58:10E	31QCV9050919214	NE31-10	T	DUNE		ML	09				N			Dune	DUNEDINTIL	Dune d’I-n-Til	Dune d'I-n-Til	TIL DUNEDIN	Til, Dune d’I-n-	Til, Dune d'I-n-		2006-06-01	1,2,3,4,5,6,7	1			1993-09-01		
3	-1075645	-1596265	17.515833	1.105833	17:30:57N	1:06:21E	31QBV9890837621	NE31-09	T	DUNE		ML	09				V			Dune	DUNETILAGUENDOU	Dune Tilaguendou	Dune Tilaguendou	TILAGUENDOU DUNE	Tilaguendou, Dune	Tilaguendou, Dune		2006-06-01	1,2,3,4,5				1993-09-01		
3	-1075645	-1596264	17.515833	1.105833	17:30:57N	1:06:21E	31QBV9890837621	NE31-09	T	DUNE		ML	09				N			Dune	DUNETILAGUEMDOU	Dune Tilaguemdou	Dune Tilaguemdou	TILAGUEMDOU DUNE	Tilaguemdou, Dune	Tilaguemdou, Dune		2006-06-01	1,2,3,4,5	1			1993-09-01		
3	-1075077	-1595339	19.6	2.533333	19:36:00N	2:32:00E	31QDB5106267285	NE31-02	T	BUTE		ML	10				N				TANARABENE	Ta-n-Ârabene	Ta-n-Arabene	TANARABENE	Ta-n-Ârabene	Ta-n-Arabene		2007-04-04	1,2,3,4,5	1			2007-04-04		
3	-1075077	-1595338	19.6	2.533333	19:36:00N	2:32:00E	31QDB5106267285	NE31-02	T	BUTE		ML	10				V				TANARABEN	Tan-Araben	Tan-Araben	TANARABEN	Tan-Araben	Tan-Araben		2007-04-04	1,2,3,4,5				2007-04-04		
3	-1075487	-1595995	17.816667	2.383333	17:49:00N	2:23:00E	31QDV3465070010	NE31-10	T	SCRP		ML	00				V				TIBENENOUA	Tibenenoua	Tibenenoua	TIBENENOUA	Tibenenoua	Tibenenoua		1993-12-18	1,2,3,4,5				1993-09-01		
3	-1075487	-1595993	17.816667	2.383333	17:49:00N	2:23:00E	31QDV3465070010	NE31-10	T	SCRP		ML	00				N				TIBENENNOUA	Tibenennoua	Tibenennoua	TIBENENNOUA	Tibenennoua	Tibenennoua		1993-12-18	1,2,3,4,5	1			1993-09-01		
3	-1074930	-1594989	18.783333	2.55	18:47:00N	2:33:00E	31QDA5257676914	NE31-06	T	SCRP		ML	00				V			Mont	MONTTADJELOUTTAKADIOUINE	Mont Tadjelout-Takadiouine	Mont Tadjelout-Takadiouine	TADJELOUTTAKADIOUINE MONT	Tadjelout-Takadiouine, Mont	Tadjelout-Takadiouine, Mont		1993-12-18	1,2,3,4,5				1993-09-01		
3	-1074930	-1595135	18.783333	2.55	18:47:00N	2:33:00E	31QDA5257676914	NE31-06	T	SCRP		ML	00				V			Taguelout	TAGELOUTTAKADIOUINMONT	Tagelout Takadiouin Mont	Tagelout Takadiouin Mont	TAKADIOUINMONT TAGELOUT	Takadiouin Mont, Tagelout	Takadiouin Mont, Tagelout		1993-12-18	1,2,3,4,5				1993-09-01		
3	-1074930	-1595134	18.783333	2.55	18:47:00N	2:33:00E	31QDA5257676914	NE31-06	T	SCRP		ML	00				N			Taguelout	TAGUELOUTTAKADIOUINE	Taguelout Takadiouine	Taguelout Takadiouine	TAKADIOUINE TAGUELOUT	Takadiouine, Taguelout	Takadiouine, Taguelout		1993-12-18	1,2,3,4,5	1			1993-09-01		
3	-1074930	-1595133	18.783333	2.55	18:47:00N	2:33:00E	31QDA5257676914	NE31-06	T	SCRP		ML	00				V			Taguelout	TAGUELOUTTAKADIOUIN	Taguelout Takadiouin	Taguelout Takadiouin	TAKADIOUIN TAGUELOUT	Takadiouin, Taguelout	Takadiouin, Taguelout		1993-12-18	1,2,3,4,5				1993-09-01		
3	-1074928	-1595131	16.171389	-1.770833	16:10:17N	1:46:15W	30QXC3140688286	NE30-15	T	SAND		ML	08				N				TAKACHEMT	Takachemt	Takachemt	TAKACHEMT	Takachemt	Takachemt		2006-05-23	1,2,3,4,5,6,7,8,9	1			1993-09-01		
3	-1074924	-1595126	18.482778	2.039444	18:28:58N	2:02:22E	31QCA9859043869	NE31-06	T	HLL		ML	10				N				TAKSINET	Taksínet	Taksinet	TAKSINET	Taksínet	Taksinet		2006-06-08	1,2,3,4,5	1			1993-09-01		
3	-1074924	-1595125	18.482778	2.039444	18:28:58N	2:02:22E	31QCA9859043869	NE31-06	T	HLL		ML	10				V			Adrar	ADRARTAJSINEN	Adrar Tajsinen	Adrar Tajsinen	TAJSINEN ADRAR	Tajsinen, Adrar	Tajsinen, Adrar		2006-06-08	1,2,3,4,5				1993-09-01		
3	-1074921	-1595121	17.016667	2.65	17:01:00N	2:39:00E	31QDU6274881432	NE31-10	T	HLL		ML	00				N				TAIKARE	Taïkaré	Taikare	TAIKARE	Taïkaré	Taikare		1993-12-18	1,2,3,4,5	1			1993-09-01		
3	-1069709	-1587904	16.486944	-1.314722	16:29:13N	1:18:53W	30QXD7988923551	NE30-16	T	SAND		ML	08				N				KAROUASSA	Karouassa	Karouassa	KAROUASSA	Karouassa	Karouassa		2006-05-23	1,2,3,4,5	1			1993-09-01		
3	-1069707	-1587902	19.738889	.241667	19:44:20N	0:14:30E	31QBB1090484939	NE31-01	T	SCRP		ML	10				N			Kreb	KREBINKAROUA	Kreb I-n-Karoua	Kreb I-n-Karoua	KAROUA KREBIN	Karoua, Kreb I-n-	Karoua, Kreb I-n-		2007-03-06	1,2,3,4,5,6,7,8,9	1			2007-03-06		
3	-1069707	9262956	19.738889	.241667	19:44:20N	0:14:30E	31QBB1090484939	NE31-01	T	SCRP		ML	10				V				KHEBINKARVA	Kheb-in-Karva	Kheb-in-Karva	KARVA KHEBIN	Karva, Kheb-in-	Karva, Kheb-in-		2007-03-06	1,2,3,4,5,6,7,8,9				2007-03-06		
3	-1070996	-1589612	12.35	-9.8	12:21:00N	9:48:00W	29PMP1302465386	ND29-14	T	HLL		ML	00				N				KOUROUKOUNBA	Kouroukounba	Kouroukounba	KOUROUKOUNBA	Kouroukounba	Kouroukounba		1993-12-18	1,2,3,4,5	1			1993-09-01		
3	-1070996	-1589610	12.35	-9.8	12:21:00N	9:48:00W	29PMP1302465386	ND29-14	T	HLL		ML	00				V				KOUROUKOUMBA	Kouroukoumba	Kouroukoumba	KOUROUKOUMBA	Kouroukoumba	Kouroukoumba		1993-12-18	1,2,3,4,5				1993-09-01		
3	-1074780	-1594900	20.483889	-.343611	20:29:02N	0:20:37W	30QYH7708967279	NF30-16	T	MESA		ML	10				N				TABAKAT	Tabakat	Tabakat	TABAKAT	Tabakat	Tabakat		2007-01-31	1,2,3,4,5	1			2005-04-07		
3	-1074029	-1593901	16.983333	4.166667	16:59:00N	4:10:00E	31QFU2420278081	NE31-15	T	SCRP		ML	00				N			Kreb	KREBDESESSAO	Kreb de Séssao	Kreb de Sessao	SESSAO KREBDE	Séssao, Kreb de	Sessao, Kreb de		1993-12-18	1,2,3,4,5	1			1993-09-01		
3	-1076055	-1596918	16.819722	-1.1	16:49:11N	1:06:00W	30QYD0246660584	NE30-16	T	DUNE		ML	08				N				TINTECHAK	Ti-n-Téchak	Ti-n-Techak	TINTECHAK	Ti-n-Téchak	Ti-n-Techak		2006-05-23	1,2,3,4,5,6,7,8,9	1			1993-09-01		
3	-1076054	-1596917	16.122778	-1.924722	16:07:22N	1:55:29W	30QXC1498182816	NE30-15	T	DUNE		ML	08				N				TINTECHAK	Ti-n-Téchak	Ti-n-Techak	TINTECHAK	Ti-n-Téchak	Ti-n-Techak		2006-05-23	1,2,3,4,5,6,7,8,9	1			1993-09-01		
3	-1075639	-1596256	17.316667	-1.283333	17:19:00N	1:17:00W	30QXE8244115401	NE30-12	T	DUNE		ML	00				N				TIKENAH	Tikenah	Tikenah	TIKENAH	Tikenah	Tikenah		1993-12-18	1,2,3,4,5	1			1993-09-01		
3	-1075752	-1596419	16.283333	.3	16:17:00N	0:18:00E	31QBU1144302184	NE31-13	T	DUNE		ML	00				N				TINALRER	Ti-n-Alrèr	Ti-n-Alrer	TINALRER	Ti-n-Alrèr	Ti-n-Alrer		1993-12-18	1,2,3,4,5	1			1993-09-01		
3	-1075747	-1596409	16.336389	-1.0375	16:20:11N	1:02:15W	30QYD0965107156	NE30-16	T	MESA		ML	08				N				TINALAMOU	Ti-n-Alamou	Ti-n-Alamou	TINALAMOU	Ti-n-Alamou	Ti-n-Alamou		2006-05-23	1,2,3,4,5,6,7,8,9	1			1993-09-01		
3	-1075740	-1596402	16.476944	-.766111	16:28:37N	0:45:58W	30QYD3848323013	NE30-16	T	HLLS		ML	09				N				TINAKREOU	Ti-n-Akréou	Ti-n-Akreou	TINAKREOU	Ti-n-Akréou	Ti-n-Akreou		2006-05-24	1,2,3,4,5	1			1993-09-01		
3	-1075486	-1595992	19.235833	2.468056	19:14:09N	2:28:05E	31QDB4409227008	NE31-02	T	HLL		ML	10				N				TIBENENNOUA	Tibenennoua	Tibenennoua	TIBENENNOUA	Tibenennoua	Tibenennoua		2007-04-04	1,2,3,4,5	1			2007-04-04		
3	-1075486	-1596001	19.235833	2.468056	19:14:09N	2:28:05E	31QDB4409227008	NE31-02	T	HLL		ML	10				V			Gour	GOURTIBENOUA	Gour Tibenoua	Gour Tibenoua	TIBENOUA GOUR	Tibenoua, Gour	Tibenoua, Gour		2007-04-04	1,2,3,4,5				2007-04-04		
3	-1075486	-1596000	19.235833	2.468056	19:14:09N	2:28:05E	31QDB4409227008	NE31-02	T	HLL		ML	10				V			Mount	MOUNTTIBENNOUA	Mount Tibennoua	Mount Tibennoua	TIBENNOUA MOUNT	Tibennoua, Mount	Tibennoua, Mount		2007-04-04	1,2,3,4,5				2007-04-04		
3	-1073271	-1592845	16.726389	.890833	16:43:35N	0:53:27E	31QBU7512850479	NE31-13	T	SCRP		ML	09				N				RACHERCHEDIDEN	Racherchediden	Racherchediden	RACHERCHEDIDEN	Racherchediden	Racherchediden		2006-06-08	1,2,3,4,5	1			1993-09-01		
3	-1073271	-1592847	16.726389	.890833	16:43:35N	0:53:27E	31QBU7512850479	NE31-13	T	SCRP		ML	09				V				RACHERCHEDIDENE	Racherchedidene	Racherchedidene	RACHERCHEDIDENE	Racherchedidene	Racherchedidene		2006-06-08	1,2,3,4,5				1993-09-01		
3	-1075847	-1596567	17.275556	-1.446667	17:16:32N	1:26:48W	30QXE6511510704	NE30-12	T	DUNE		ML	09				N				TINECHCHEROUG	Ti-n-Ech Cheroug	Ti-n-Ech Cheroug	TINECHCHEROUG	Ti-n-Ech Cheroug	Ti-n-Ech Cheroug		2006-06-08	1,2,3,4,5	1			1993-09-01		
3	-1076051	-1596911	17.179444	-.96	17:10:46N	0:57:36W	30QYE1697500547	NE30-12	T	DUNE		ML	09				N				TINTBOURARINE	Ti-n-Tbourarine	Ti-n-Tbourarine	TINTBOURARINE	Ti-n-Tbourarine	Ti-n-Tbourarine		2007-04-10	1,2,3,4,5	1			2007-04-10		
3	-1076051	-1596910	17.179444	-.96	17:10:46N	0:57:36W	30QYE1697500547	NE30-12	T	DUNE		ML	09				V				TINTBOURARIN	Tin Tbourarin	Tin Tbourarin	TINTBOURARIN	Tin Tbourarin	Tin Tbourarin		2007-04-10	1,2,3,4,5				2007-04-10		
3	-1076043	-1596894	17.1975	1.860833	17:11:51N	1:51:39E	31QCV7886401760	NE31-10	T	SCRP		ML	09				N				TINTAMAREI	Ti-n-Tamareï	Ti-n-Tamarei	TINTAMAREI	Ti-n-Tamareï	Ti-n-Tamarei		2006-06-01	1,2,3,4,5	1			1993-09-01		
3	-1076040	-1596890	16.636389	-1.656111	16:38:11N	1:39:22W	30QXD4333239813	NE30-15	T	MT		ML	08				N				TINTAILOUT	Ti-n-Taïlout	Ti-n-Tailout	TINTAILOUT	Ti-n-Taïlout	Ti-n-Tailout		2006-05-23	1,2,3,4,5,6,7,8,9	1			1993-09-01		
3	-1076040	-1596936	16.636389	-1.656111	16:38:11N	1:39:22W	30QXD4333239813	NE30-15	T	MT		ML	08				V				MONTTINTELOUT	Mont Tintelout	Mont Tintelout	MONTTINTELOUT	Mont Tintelout	Mont Tintelout		2006-05-23	1,2,3,4,5,6,7,8,9				1993-09-01		
3	-1075707	-1596358	16.139167	-1.676667	16:08:21N	1:40:36W	30QXC4149884784	NE30-15	T	SAND		ML	08				N				TINABDOULMAJI	Ti-n-Abdoul Maji	Ti-n-Abdoul Maji	TINABDOULMAJI	Ti-n-Abdoul Maji	Ti-n-Abdoul Maji		2006-05-23	1,2,3,4,5,6,7,8,9	1			1993-09-01		
3	-1075690	-1596336	18.983333	2.333333	18:59:00N	2:20:00E	31QDA2982599116	NE31-06	T	HLL		ML	10				V				TIMOULIN	Timoulin	Timoulin	TIMOULIN	Timoulin	Timoulin		2005-04-11	1,2,3,4,5				2005-04-07		
3	-1075690	9271492	18.983333	2.333333	18:59:00N	2:20:00E	31QDA2982599116	NE31-06	T	HLL		ML	10				V				TIMULIN	Timulin	Timulin	TIMULIN	Timulin	Timulin		2005-04-11	1,2,3,4,5				2005-04-07		
3	-1075690	-1596338	18.983333	2.333333	18:59:00N	2:20:00E	31QDA2982599116	NE31-06	T	HLL		ML	10				V			Mont	MONTTIMOULINE	Mont Timouline	Mont Timouline	TIMOULINE MONT	Timouline, Mont	Timouline, Mont		2005-04-11	1,2,3,4,5				2005-04-07		
3	-1075690	-1596337	18.983333	2.333333	18:59:00N	2:20:00E	31QDA2982599116	NE31-06	T	HLL		ML	10				N				TIMOULINE	Timouline	Timouline	TIMOULINE	Timouline	Timouline		2005-04-11	1,2,3,4,5	1			2005-04-07		
3	-1075867	-1596597	17.3775	-.795833	17:22:39N	0:47:45W	30QYE3419222663	NE30-12	T	DUNE		ML	09				N				TINEKREO	Ti-n-Ekréo	Ti-n-Ekreo	TINEKREO	Ti-n-Ekréo	Ti-n-Ekreo		2007-04-10	1,2,3,4,5	1			2007-04-10		
3	-1075867	-1596596	17.3775	-.795833	17:22:39N	0:47:45W	30QYE3419222663	NE30-12	T	DUNE		ML	09				V				TINEKREA	Tin Ekréa	Tin Ekrea	TINEKREA	Tin Ekréa	Tin Ekrea		2007-04-10	1,2,3,4,5				2007-04-10		
3	-1073038	-1592499	17.221111	-1.195833	17:13:16N	1:11:45W	30QXE9184104910	NE30-12	T	DUNE		ML	09				N			Nebket	NEBKETOULADELKHALIFA	Nebket Oulad el Khalîfa	Nebket Oulad el Khalifa	NEBKETOULADELKHALIFA	Nebket Oulad el Khalîfa	Nebket Oulad el Khalifa		2006-06-08	1,2,3,4,5	1			1993-09-01		
3	-1073038	-1592500	17.221111	-1.195833	17:13:16N	1:11:45W	30QXE9184104910	NE30-12	T	DUNE		ML	09				V				NEBKETOULADELRHALIFA	Nebket Oulad el Rhalifa	Nebket Oulad el Rhalifa	OULADELRHALIFA NEBKET	Oulad el Rhalifa, Nebket	Oulad el Rhalifa, Nebket		2006-06-08	1,2,3,4,5				1993-09-01		
3	-1069696	-1587888	17.183333	2.816667	17:11:00N	2:49:00E	31QDU8050499846	NE31-10	T	SCRP		ML	00				N				KARKARYINDAO	Karkaryindao	Karkaryindao	KARKARYINDAO	Karkaryindao	Karkaryindao		1993-12-18	1,2,3,4,5	1			1993-09-01		
3	-1069232	-1587218	17.828889	4.129444	17:49:44N	4:07:46E	31QFV1968771616	NE31-11	T	SCRP		ML	09				V				IRIDENBELENE	Iridenbelene	Iridenbelene	IRIDENBELENE	Iridenbelene	Iridenbelene		2006-10-13	1,2,3,4,5				1993-09-01		
3	-1069232	6543291	17.828889	4.129444	17:49:44N	4:07:46E	31QFV1968771616	NE31-11	T	SCRP		ML	09				N				ERAEIBOUNDELENE	Éraèïboundélene	Eraeiboundelene	ERAEIBOUNDELENE	Éraèïboundélene	Eraeiboundelene		2006-10-13	1,2,3,4,5	1			1993-09-01		
3	-1069232	-1587217	17.828889	4.129444	17:49:44N	4:07:46E	31QFV1968771616	NE31-11	T	SCRP		ML	09				V				IRIDENBELEN	Iridenbelen	Iridenbelen	IRIDENBELEN	Iridenbelen	Iridenbelen		2006-10-13	1,2,3,4,5				1993-09-01		
3	-1069228	-1584430	20.083333	1.562222	20:05:00N	1:33:44E	31QCC4966821351	NF31-14	T	HLLS		ML	10				V				ADRAREREUZAFFANE	Adrar Ereuzaffane	Adrar Ereuzaffane	EREUZAFFANE ADRAR	Ereuzaffane, Adrar	Ereuzaffane, Adrar		2007-02-22	1,2,3,4,5				2007-02-22		
3	-1069228	9269802	20.083333	1.562222	20:05:00N	1:33:44E	31QCC4966821351	NF31-14	T	HLLS		ML	10				V				ADRARIGEZZAF	Adrar-Igezzaf	Adrar-Igezzaf	IGEZZAF ADRAR	Igezzaf, Adrar-	Igezzaf, Adrar-		2007-02-22	1,2,3,4,5				2007-02-22		
3	-1069228	9270140	20.083333	1.562222	20:05:00N	1:33:44E	31QCC4966821351	NF31-14	T	HLLS		ML	10				N			Adrar	ADRARIGHEZZAF	Adrar Ighezzaf	Adrar Ighezzaf	IGHEZZAF ADRAR	Ighezzaf, Adrar	Ighezzaf, Adrar		2007-02-22	1,2,3,4,5	1			2007-02-22		
3	-1069228	-1587211	20.083333	1.562222	20:05:00N	1:33:44E	31QCC4966821351	NF31-14	T	HLLS		ML	10				V				ADRARIRHEZZAF	Adrar Irhezzaf	Adrar Irhezzaf	IRHEZZAF ADRAR	Irhezzaf, Adrar	Irhezzaf, Adrar		2007-02-22	1,2,3,4,5				2007-02-22		
3	-1069228	-1587206	20.083333	1.562222	20:05:00N	1:33:44E	31QCC4966821351	NF31-14	T	HLLS		ML	10				V				MONTIREZAF	Mont Irezaf	Mont Irezaf	IREZAF MONT	Irezaf, Mont	Irezaf, Mont		2007-02-22	1,2,3,4,5				2007-02-22		
3	-1069125	-1587017	18.518056	1.299444	18:31:05N	1:17:58E	31QCA2048748349	NE31-05	T	HLLS		ML	10				N				INTARENTARE	I-n-Tarentaré	I-n-Tarentare	INTARENTARE	I-n-Tarentaré	I-n-Tarentare		2006-06-02	1,2,3,4,5	1			1993-09-01		
3	-1069125	-1595494	18.518056	1.299444	18:31:05N	1:17:58E	31QCA2048748349	NE31-05	T	HLLS		ML	10				V				MONTINTARENTARE	Mont in Tarentaré	Mont in Tarentare	MONTINTARENTARE	Mont in Tarentaré	Mont in Tarentare		2006-06-02	1,2,3,4,5				1993-09-01		
3	-1074865	-1595022	18.166667	1.333333	18:10:00N	1:20:00E	31QCA2370909425	NE31-05	T	SCRP		ML	10				N				TAFALIANET	Tafalianet	Tafalianet	TAFALIANET	Tafalianet	Tafalianet		2006-06-02	1,2,3,4,5	1			1993-09-01		
3	-1074865	-1595021	18.166667	1.333333	18:10:00N	1:20:00E	31QCA2370909425	NE31-05	T	SCRP		ML	10				V				TAFALIANE	Tafaliane	Tafaliane	TAFALIANE	Tafaliane	Tafaliane		2006-06-02	1,2,3,4,5				1993-09-01		
3	-1074854	-1595005	21.033333	.433333	21:02:00N	0:26:00E	31QBD3324227982	NF31-09	T	HLL		ML	00				N				ADRARTADOULILT	Adrar Tadoulilt	Adrar Tadoulilt	TADOULILT ADRAR	Tadoulilt, Adrar	Tadoulilt, Adrar		1993-12-18	1,2,3,4,5	1			1993-09-01		
3	-1074854	-1595004	21.033333	.433333	21:02:00N	0:26:00E	31QBD3324227982	NF31-09	T	HLL		ML	00				V				MONTTADOULIK	Mont Tadoulik	Mont Tadoulik	TADOULIK MONT	Tadoulik, Mont	Tadoulik, Mont		1993-12-18	1,2,3,4,5				1993-09-01		
3	-1074848	-1594994	16.316944	.458056	16:19:01N	0:27:29E	31QBU2839105688	NE31-13	T	DUNE		ML	09				N				TADJIBART	Tadjibart	Tadjibart	TADJIBART	Tadjibart	Tadjibart		2006-06-08	1,2,3,4,5	1			1993-09-01		
3	-1074846	-1594991	20.111389	1.091111	20:06:41N	1:05:28E	31QCC0043324951	NF31-13	T	HLLS		ML	10				V				TADJEMME	Tadjemme	Tadjemme	TADJEMME	Tadjemme	Tadjemme		2007-02-02	1,2,3,4,5				2005-04-07		
3	-1074846	-1594990	20.111389	1.091111	20:06:41N	1:05:28E	31QCC0043324951	NF31-13	T	HLLS		ML	10				N				TADJEM	Tadjem	Tadjem	TADJEM	Tadjem	Tadjem		2007-02-02	1,2,3,4,5	1			2005-04-07		
3	-1075678	-1596314	19.5	2.683333	19:30:00N	2:41:00E	31QDB6677256184	NE31-02	T	RDGE		ML	10				V				TIMEDOUIN	Timedouin	Timedouin	TIMEDOUIN	Timedouin	Timedouin		2005-04-11	1,2,3,4,5				2005-04-07		
3	-1075678	-1596315	19.5	2.683333	19:30:00N	2:41:00E	31QDB6677256184	NE31-02	T	RDGE		ML	10				N				TIMEDOUINE	Timedouîne	Timedouine	TIMEDOUINE	Timedouîne	Timedouine		2005-04-11	1,2,3,4,5	1			2005-04-07		
