RC	UFI	UNI	LAT	LONG	DMS_LAT	DMS_LONG	MGRS	JOG	FC	DSG	PC	CC1	ADM1	POP	ELEV	CC2	NT	LC	SHORT_FORM	GENERIC	SORT_NAME_RO	FULL_NAME_RO	FULL_NAME_ND_RO	SORT_NAME_RG	FULL_NAME_RG	FULL_NAME_ND_RG	NOTE	MODIFY_DATE	DISPLAY	NAME_RANK	NAME_LINK	TRANSL_CD	NM_MODIFY_DATE	F_EFCTV_DT	F_TERM_DT
3	-1103332	-1631992	17	2	17:00:00N	2:00:00E	31QCU9355279827	NE31-10	L	RGN		CD	00			ML	N				SAHEL	Sahel	Sahel	SAHEL	Sahel	Sahel		1994-04-07	1,2,3,4,5	1			1993-09-01		
3	9203316	9269703	20.669444	1.367222	20:40:10N	1:22:02E	31QCC2991986420	NF31-13	L	LCTY		AG	00			ML	V				TINADELADZH	Tin-Adeladzh	Tin-Adeladzh	TINADELADZH	Tin-Adeladzh	Tin-Adeladzh		2007-02-01	1,2,3,4				2005-04-07		
3	9203316	6607231	20.669444	1.367222	20:40:10N	1:22:02E	31QCC2991986420	NF31-13	L	LCTY		AG	00			ML	N				TINADELADJ	Ti-n-Adeladj	Ti-n-Adeladj	TINADELADJ	Ti-n-Adeladj	Ti-n-Adeladj		2007-02-01	1,2,3,4	1			2005-04-07		
3	-1085447	-1609687	17	2	17:00:00N	2:00:00E	31QCU9355279827	NE31-10	L	RGN		NG	00			ML	N				SAHEL	Sahel	Sahel	SAHEL	Sahel	Sahel		1994-03-29	1,2,3,4,5	1			1993-09-01		
3	-1069234	-1587223	16.66008	-5.62708	16:39:36N	5:37:37W	30QTD1978343795	NE30-13	L	RGN		ML	00			ML	N				IRIGUI	Irîgui	Irigui	IRIGUI	Irîgui	Irigui		2007-10-02	1,2,3,4,5	1			2007-10-02		
3	-490961	-701051	26.547854	-7.196199	26:32:52N	7:11:46W	29RPK7969337622	NG29-08	L	RGN		AG	54			ML	N				IETTI	Ietti	Ietti	IETTI	Ietti	Ietti		2011-02-14	1,2,3,4,5,6,7,8,9				2005-07-11		
1	-475997	-681814	24.8065	-5.7948	24:48:23N	5:47:41W	30RTN1746446415	NG30-13	L	RGN		ML	00			ML	N				MDENNAH	Mdennah	Mdennah	MDENNAH	Mdennah	Mdennah		2007-12-12	1,2,3,4	1			2007-12-12		
1	-459902	-660973	24.7432	-5.0146	24:44:36N	5:00:53W	30RTN9625938013	NG30-13	L	RGN		ML	00			ML	N				AZELAF	Azelaf	Azelaf	AZELAF	Azelaf	Azelaf		2007-12-12	1,2,3,4				2007-12-12		
1	10085365	10299980	15.1256	1.1188	15:07:32N	1:07:08E	31PBS9784473084	ND31-01	L	AREA		ML	00			ML	N				IGILIMAMA	Igilimama	Igilimama	IGILIMAMA	Igilimama	Igilimama		2008-01-30	1,2,3,4	1			2008-01-30		
1	10342425	10756293	13.3463	-3.6299	13:20:47N	3:37:48W	30PVV3178775519	ND30-10	L	AREA		ML	04			ML	N				MARKA	Marka	Marka	MARKA	Marka	Marka		2008-10-31	1,2,3,4,5,6,7				2008-10-31		
3	6330285	6541765	22.858889	-1.468611	22:51:32N	1:28:07W	30QXL5711528715	NF30-08	L	AREA		AG,ML				ML	N				EJJAOUF	Ej Jaouf	Ej Jaouf	EJJAOUF	Ej Jaouf	Ej Jaouf		2012-11-05	1,2,3,4	1			2012-11-05		
3	10386677	10849341	15.018931	-.350955	15:01:08N	0:21:03W	30PYB8485662127	ND30-04	L	LCTY		ML,UV				ML,UV	N				INTAMARIN	I-n-Tamarin	I-n-Tamarin	INTAMARIN	I-n-Tamarin	I-n-Tamarin		2012-10-30	1,2,3,4	1			2012-10-30		
3	10341344	10753879	14.65397	-1.460684	14:39:14N	1:27:38W	30PXB6576920618	ND30-08	L	LCTY		ML,UV				ML,UV	N				BOGUELIAYEROBANA	Boguélia Yérobana	Boguelia Yerobana	BOGUELIAYEROBANA	Boguélia Yérobana	Boguelia Yerobana		2012-11-13	1,2,3,4	1			2012-11-14		
3	10386677	10849473	15.018931	-.350955	15:01:08N	0:21:03W	30PYB8485662127	ND30-04	L	LCTY		ML,UV					V				INTAMARIN	In Tamarin	In Tamarin	INTAMARIN	In Tamarin	In Tamarin		2012-10-30	1,2,3,4				2008-11-21		
1	-1070516	-1588982	14	-8.583333	14:00:00N	8:35:00W	29PNR4499747766	ND29-07	L	RESF		ML	00				V				FORETCLASSEEDEKONGOSSANBOUGOU	Forêt Classée de Kongossanbougou	Foret Classee de Kongossanbougou	KONGOSSANBOUGOU FORETCLASSEEDE	Kongossanbougou, Forêt Classée de	Kongossanbougou, Foret Classee de		1993-12-18	1,2,3,4,5				2008-11-18		
1	-1070516	-1588979	14	-8.583333	14:00:00N	8:35:00W	29PNR4499747766	ND29-07	L	RESF		ML	00				N			Forêt Classée	FORETCLASSEEDEKONGOSANBOUGOU	Forêt Classée de Kongosanbougou	Foret Classee de Kongosanbougou	KONGOSANBOUGOU FORETCLASSEEDE	Kongosanbougou, Forêt Classée de	Kongosanbougou, Foret Classee de		1993-12-18	1,2,3,4,5	1			2008-11-18		
1	6399907	6719178	18.140713	-2.437669	18:08:27N	2:26:16W	30QWF5948305844	NE30-07	L	LCTY		ML	08				N				TIMIOUINE	Timiouîne	Timiouine	TIMIOUINE	Timiouîne	Timiouine		2009-11-09	1,2,3,4	1			1993-09-01		
3	6399913	6719184	18.052702	-2.240696	18:03:10N	2:14:27W	30QWE8036096181	NE30-07	L	LCTY		ML	08				N				EGHECHAR	Eghechar	Eghechar	EGHECHAR	Eghechar	Eghechar		2009-11-09	1,2,3,4,5,6,7	1			1993-09-01		
3	6399913	6719185	18.052702	-2.240696	18:03:10N	2:14:27W	30QWE8036096181	NE30-07	L	LCTY		ML	08				V				ERHECHAR	Erhechar	Erhechar	ERHECHAR	Erhechar	Erhechar		2009-11-09	1,2,3,4,5,6,7				1993-09-01		
1	-1075778	-1596456	16.893528	-2.190103	16:53:37N	2:11:24W	30QWD8625967954	NE30-15	L	LCTY		ML	08				V				TINARARA	Tin Arara	Tin Arara	TINARARA	Tin Arara	Tin Arara		2009-10-13	1,2,3,4,5				1993-09-01		
1	-1075778	-1596457	16.893528	-2.190103	16:53:37N	2:11:24W	30QWD8625967954	NE30-15	L	LCTY		ML	08				N				TINARARF	Ti-n-Ararf	Ti-n-Ararf	TINARARF	Ti-n-Ararf	Ti-n-Ararf		2009-10-13	1,2,3,4,5	1			1993-09-01		
1	-1076596	-1597656	16.803222	-2.197758	16:48:12N	2:11:52W	30QWD8548457960	NE30-15	L	LCTY		ML	08				N				VANGARETABANGUEALMARA	Vangaréta Bangué Almara	Vangareta Bangue Almara	VANGARETABANGUEALMARA	Vangaréta Bangué Almara	Vangareta Bangue Almara		2009-10-13	1,2,3,4,5	1			1993-09-01		
1	-1075859	-1596581	16.945166	-2.165501	16:56:43N	2:09:56W	30QWD8885573678	NE30-15	L	LCTY		ML	08				N				TINEFOUD	Ti-n-Efoud	Ti-n-Efoud	TINEFOUD	Ti-n-Efoud	Ti-n-Efoud		2009-10-13	1,2,3,4,5	1			1993-09-01		
1	-1075505	-1596020	16.894425	-2.016314	16:53:40N	2:00:59W	30QXD0476968137	NE30-15	L	LCTY		ML	08				N				TIBTAL	Tibtal	Tibtal	TIBTAL	Tibtal	Tibtal		2009-10-13	1,2,3,4,5	1			1993-09-01		
1	-1076150	-1597069	16.816667	-2.716667	16:49:00N	2:43:00W	30QWD3018859296	NE30-15	L	LCTY		ML	08				V				TIRESS	Tiress	Tiress	TIRESS	Tiress	Tiress		2009-10-13	1,2,3,4,5				1993-09-01		
1	-1076150	-1597068	16.816667	-2.716667	16:49:00N	2:43:00W	30QWD3018859296	NE30-15	L	LCTY		ML	08				N				TIRES	Tirès	Tires	TIRES	Tirès	Tires		2009-10-13	1,2,3,4,5	1			1993-09-01		
1	-1068682	-1586220	16.850813	-2.191054	16:51:03N	2:11:28W	30QWD8617763228	NE30-15	L	LCTY		ML	08				N				HONDOUKIR	Hondoukir	Hondoukir	HONDOUKIR	Hondoukir	Hondoukir		2009-10-13	1,2,3,4,5	1			1993-09-01		
1	6331434	6543034	16.062527	-2.010633	16:03:45N	2:00:38W	30QXC0582576105	NE30-15	L	LCTY		ML	08				V				TEKACHAMT	Tékachamt	Tekachamt	TEKACHAMT	Tékachamt	Tekachamt		2009-10-13	1,2,3,4				1993-09-01		
1	6331434	6543033	16.062527	-2.010633	16:03:45N	2:00:38W	30QXC0582576105	NE30-15	L	LCTY		ML	08				N				TINTAOUAYDARAT	Ti-n-Taouaydarat	Ti-n-Taouaydarat	TINTAOUAYDARAT	Ti-n-Taouaydarat	Ti-n-Taouaydarat		2009-10-13	1,2,3,4	1			1993-09-01		
1	6331400	6542999	16.716397	-2.38709	16:42:59N	2:23:14W	30QWD6533848282	NE30-15	L	LCTY		ML	08				N				MODIAKOY	Modiakoy	Modiakoy	MODIAKOY	Modiakoy	Modiakoy		2009-10-13	1,2,3,4	1			1993-09-01		
1	6331375	6542974	16.792417	-2.431916	16:47:33N	2:25:55W	30QWD6053656678	NE30-15	L	LCTY		ML	08				N				DAROUA	Daroua	Daroua	DAROUA	Daroua	Daroua		2009-10-13	1,2,3,4	1			1993-09-01		
1	6331387	6542986	16.834834	-2.635592	16:50:05N	2:38:08W	30QWD3882361319	NE30-15	L	LCTY		ML	08				N				DJIR	Djir	Djir	DJIR	Djir	Djir		2009-10-13	1,2,3,4	1			1993-09-01		
1	6331517	6543117	16.611204	-2.113193	16:36:40N	2:06:47W	30QWD9459036755	NE30-15	L	LCTY		ML	08				N				IBLOULAYE	Ibloulaye	Ibloulaye	IBLOULAYE	Ibloulaye	Ibloulaye		2009-10-14	1,2,3,4	1			1993-09-01		
1	6331530	6543130	16.761083	-2.844834	16:45:40N	2:50:41W	30QWD1653753132	NE30-15	L	LCTY		ML	08				N				TOMBOUZ	Tombouz	Tombouz	TOMBOUZ	Tombouz	Tombouz		2009-10-14	1,2,3,4	1			1993-09-01		
1	6331411	6543010	16.86949	-2.157205	16:52:10N	2:09:26W	30QWD8977465309	NE30-15	L	LCTY		ML	08				N				FAHITAOUEN	Fahitaouèn	Fahitaouen	FAHITAOUEN	Fahitaouèn	Fahitaouen		2009-10-14	1,2,3,4	1			1993-09-01		
1	6331414	6543013	16.804139	-2.12561	16:48:15N	2:07:32W	30QWD9317258094	NE30-15	L	LCTY		ML	08				N				AMELDARA	Amèl Dara	Amel Dara	AMELDARA	Amèl Dara	Amel Dara		2009-10-14	1,2,3,4	1			1993-09-01		
1	6331413	6543012	16.801369	-2.145991	16:48:05N	2:08:46W	30QWD9100257778	NE30-15	L	LCTY		ML	08				N				TINANECHAR	Ti-n-Anéchar	Ti-n-Anechar	TINANECHAR	Ti-n-Anéchar	Ti-n-Anechar		2009-10-14	1,2,3,4	1			1993-09-01		
1	6331419	6543018	16.66736	-2.025389	16:40:02N	2:01:31W	30QXD0392643011	NE30-15	L	LCTY		ML	08				N				AFADJI	Afadji	Afadji	AFADJI	Afadji	Afadji		2009-10-14	1,2,3,4	1			1993-09-01		
1	6331421	6543020	16.573433	-2.038092	16:34:24N	2:02:17W	30QXD0262132613	NE30-15	L	LCTY		ML	08				N				TINRALI	Ti-n-Rali	Ti-n-Rali	TINRALI	Ti-n-Rali	Ti-n-Rali		2009-10-14	1,2,3,4	1			1993-09-01		
1	6331425	6543024	16.430813	-2.050676	16:25:51N	2:03:02W	30QXD0135316828	NE30-15	L	LCTY		ML	08				N				IKARKARATEN	Ikarkaratèn	Ikarkaraten	IKARKARATEN	Ikarkaratèn	Ikarkaraten		2009-10-14	1,2,3,4	1			1993-09-01		
1	6331429	6543028	16.218064	-2.052684	16:13:05N	2:03:10W	30QXC0124893290	NE30-15	L	LCTY		ML	08				N				AROUGARKAAN	Arougarkaan	Arougarkaan	AROUGARKAAN	Arougarkaan	Arougarkaan		2009-10-14	1,2,3,4	1			1993-09-01		
1	6331430	6543029	16.243988	-2.124611	16:14:38N	2:07:29W	30QWC9354896124	NE30-15	L	LCTY		ML	08				N				IBITALA	Ibitala	Ibitala	IBITALA	Ibitala	Ibitala		2009-10-14	1,2,3,4	1			1993-09-01		
1	6331433	6543032	16.117285	-2.038139	16:07:02N	2:02:17W	30QXC0285582149	NE30-15	L	LCTY		ML	08				N				TINESSOKOUK	Ti-n-Essokouk	Ti-n-Essokouk	TINESSOKOUK	Ti-n-Essokouk	Ti-n-Essokouk		2009-10-14	1,2,3,4	1			1993-09-01		
3	6331435	6543035	15.998963	-2.01525	15:59:56N	2:00:55W	30PXC0536569070	ND30-03	L	LCTY		ML	08				N				TINABELBEL	Ti-n-Abelbèl	Ti-n-Abelbel	TINABELBEL	Ti-n-Abelbèl	Ti-n-Abelbel		2009-10-14	1,2,3,4	1			1993-09-01		
3	6331438	6543038	16.028906	-2.151573	16:01:44N	2:09:06W	30QWC9076472318	NE30-15	L	LCTY		ML	08				V				CHELBOULAKLAK	Chèl Boulaklak	Chel Boulaklak	CHELBOULAKLAK	Chèl Boulaklak	Chel Boulaklak		2009-10-14	1,2,3,4				2009-10-14		
3	6331438	11271062	16.028906	-2.151573	16:01:44N	2:09:06W	30QWC9076472318	NE30-15	L	LCTY		ML	08				N				CHETBOULAKLAK	Chèt Boulaklak	Chet Boulaklak	CHETBOULAKLAK	Chèt Boulaklak	Chet Boulaklak		2009-10-14	1,2,3,4	1			2009-10-14		
1	6331439	6543039	16.243471	-2.222979	16:14:36N	2:13:23W	30QWC8303596025	NE30-15	L	LCTY		ML	08				N				TINASSEYFI	Ti-n-Asseyfi	Ti-n-Asseyfi	TINASSEYFI	Ti-n-Asseyfi	Ti-n-Asseyfi		2009-10-14	1,2,3,4	1			1993-09-01		
1	6331442	6543042	16.175157	-2.316481	16:10:31N	2:18:59W	30QWC7306888432	NE30-15	L	LCTY		ML	08				N				TINABA	Ti-n-Aba	Ti-n-Aba	TINABA	Ti-n-Aba	Ti-n-Aba		2009-10-14	1,2,3,4	1			1993-09-01		
1	6331444	6543044	16.119771	-2.198665	16:07:11N	2:11:55W	30QWC8568782350	NE30-15	L	AREA		ML	08				N				TINTIDAHAN	Ti-n-Tidahan	Ti-n-Tidahan	TINTIDAHAN	Ti-n-Tidahan	Ti-n-Tidahan		2009-10-14	1,2,3,4	1			1993-09-01		
1	6331446	6543046	16.095647	-2.317312	16:05:44N	2:19:02W	30QWC7300879636	NE30-15	L	AREA		ML	08				N				TABARAK	Tabarak	Tabarak	TABARAK	Tabarak	Tabarak		2009-10-14	1,2,3,4	1			1993-09-01		
1	6331448	6543048	16.210136	-2.441609	16:12:36N	2:26:30W	30QWC5968192261	NE30-15	L	LCTY		ML	08				N				ATABA	Ataba	Ataba	ATABA	Ataba	Ataba		2009-10-14	1,2,3,4	1			1993-09-01		
1	6331450	6543050	16.126	-2.489175	16:07:34N	2:29:21W	30QWC5462082941	NE30-15	L	LCTY		ML	08				N				OULEDNEBIS	Oulèd Nébis	Ouled Nebis	OULEDNEBIS	Oulèd Nébis	Ouled Nebis		2009-10-14	1,2,3,4	1			1993-09-01		
1	6331477	6543077	16.101845	-2.919586	16:06:07N	2:55:11W	30QWC0859980203	NE30-15	L	LCTY		ML	08				N				DYALALAOUAL	Dyalalaoual	Dyalalaoual	DYALALAOUAL	Dyalalaoual	Dyalalaoual		2009-10-14	1,2,3,4	1			1993-09-01		
1	6331478	6543078	16.114768	-2.916521	16:06:53N	2:54:59W	30QWC0892681632	NE30-15	L	LCTY		ML	08				N				TINATAOUEL	Ti-n-Ataouel	Ti-n-Ataouel	TINATAOUEL	Ti-n-Ataouel	Ti-n-Ataouel		2009-10-14	1,2,3,4	1			1993-09-01		
1	6331481	6543081	16.183927	-2.94474	16:11:02N	2:56:41W	30QWC0590789281	NE30-15	L	LCTY		ML	08				N				KAPENA	Kapéna	Kapena	KAPENA	Kapéna	Kapena		2009-10-14	1,2,3,4	1			1993-09-01		
1	6331489	6543089	16.416943	-2.982463	16:25:01N	2:58:57W	30QWD0187215056	NE30-15	L	LCTY		ML	08				N				ALAKAT	Alakat	Alakat	ALAKAT	Alakat	Alakat		2009-10-14	1,2,3,4	1			1993-09-01		
1	6331492	6543092	16.456203	-2.886157	16:27:22N	2:53:10W	30QWD1215219403	NE30-15	L	LCTY		ML	08				N				TIRSEN	Tirsèn	Tirsen	TIRSEN	Tirsèn	Tirsen		2009-10-14	1,2,3,4	1			1993-09-01		
1	-1065200	-1581482	14.9591	-6.4498	14:57:33N	6:26:59W	29PQS7429755379	ND29-08	L	LCTY		ML	05				N				BERIKOULOULDWICHE	Bérikoul Ould Wiché	Berikoul Ould Wiche	BERIKOULOULDWICHE	Bérikoul Ould Wiché	Berikoul Ould Wiche		2008-11-17	1,2,3,4,5	1			2008-11-17		
1	-1065200	-1581481	14.9591	-6.4498	14:57:33N	6:26:59W	29PQS7429755379	ND29-08	L	LCTY		ML	05				V				BERIKOULJOULDQUICHE	Bérikoulj Ould Quiché	Berikoulj Ould Quiche	BERIKOULJOULDQUICHE	Bérikoulj Ould Quiché	Berikoulj Ould Quiche		2008-11-17	1,2,3,4,5				2008-11-17		
3	6331460	6543060	16.017323	-2.567443	16:01:02N	2:34:03W	30QWC4627670900	NE30-15	L	LCTY		ML	08				N				TAMARAKI	Tamaraki	Tamaraki	TAMARAKI	Tamaraki	Tamaraki		2009-10-14	1,2,3,4	1			1993-09-01		
1	6331465	6543065	16.815843	-2.095639	16:48:57N	2:05:44W	30QWD9636059403	NE30-15	L	LCTY		ML	08				N				NTEBENTGUINDESIISSA	Ntébent Guindé Siissa	Ntebent Guinde Siissa	NTEBENTGUINDESIISSA	Ntébent Guindé Siissa	Ntebent Guinde Siissa		2009-10-14	1,2,3,4	1			1993-09-01		
1	6331469	6543069	16.228176	-2.860621	16:13:41N	2:51:38W	30QWC1489594180	NE30-15	L	LCTY		ML	08				N				TINBABOU	Ti-n-Babou	Ti-n-Babou	TINBABOU	Ti-n-Babou	Ti-n-Babou		2009-10-14	1,2,3,4	1			1993-09-01		
1	6331500	6543100	16.583583	-2.978462	16:35:01N	2:58:42W	30QWD0229833490	NE30-15	L	LCTY		ML	08				N				ZOUGOUWAYT	Zougouwayt	Zougouwayt	ZOUGOUWAYT	Zougouwayt	Zougouwayt		2009-10-14	1,2,3,4	1			1993-09-01		
1	6331508	6543108	16.736782	-2.994132	16:44:12N	2:59:39W	30QWD0062550437	NE30-15	L	RESF		ML	08				N			Forêt Classée	FORETCLASSEEDEKABARI	Forêt Classée de Kabari	Foret Classee de Kabari	KABARI FORETCLASSEEDE	Kabari, Forêt Classée de	Kabari, Foret Classee de		2009-10-14	1,2,3,4	1			1993-09-01		
1	6331509	6543109	16.763594	-2.94837	16:45:49N	2:56:54W	30QWD0550353404	NE30-15	L	AREA		ML	08				N				MOUSSABANGOU	Moussa Bangou	Moussa Bangou	MOUSSABANGOU	Moussa Bangou	Moussa Bangou		2009-10-14	1,2,3,4	1			1993-09-01		
1	-1072034	-1591033	15.8388	-3.8054	15:50:20N	3:48:19W	30PVC1375851270	ND30-02	L	RESF		ML	08				N			Forêt Classée	FORETCLASSEEDEMOUNDIADIE	Forêt Classée de Moundiadié	Foret Classee de Moundiadie	MOUNDIADIE FORETCLASSEEDE	Moundiadié, Forêt Classée de	Moundiadie, Foret Classee de		2008-11-04	1,2,3,4,5	1			2008-11-04		
1	-1072034	-1591031	15.8388	-3.8054	15:50:20N	3:48:19W	30PVC1375851270	ND30-02	L	RESF		ML	08				V				FORETCLASSEEDEMOUNDIADE	Forêt Classée de Moundiadé	Foret Classee de Moundiade	MOUNDIADE FORETCLASSEEDE	Moundiadé, Forêt Classée de	Moundiade, Foret Classee de		2008-11-04	1,2,3,4,5				2008-11-04		
3	-1076524	-1597566	18.15	1.533333	18:09:00N	1:32:00E	31QCA4485307400	NE31-06	L	LCTY		ML	10				N				TOUZIK	Touzik	Touzik	TOUZIK	Touzik	Touzik		2006-06-02	1,2,3,4,5	1			1993-09-01		
3	-1075789	-1596472	17.033333	2.033333	17:02:00N	2:02:00E	31QCU9711983497	NE31-10	L	LCTY		ML	00				V				TINASSAMD	Tin Assamd	Tin Assamd	TINASSAMD	Tin Assamd	Tin Assamd		1993-12-18	1,2,3,4,5				1993-09-01		
3	-1075789	-1596471	17.033333	2.033333	17:02:00N	2:02:00E	31QCU9711983497	NE31-10	L	LCTY		ML	00				N				TINASSAGUID	Ti-n-Assaguid	Ti-n-Assaguid	TINASSAGUID	Ti-n-Assaguid	Ti-n-Assaguid		1993-12-18	1,2,3,4,5	1			1993-09-01		
3	-1075789	-1596470	17.033333	2.033333	17:02:00N	2:02:00E	31QCU9711983497	NE31-10	L	LCTY		ML	00				V				TINASAGUID	Ti-n-Asaguid	Ti-n-Asaguid	TINASAGUID	Ti-n-Asaguid	Ti-n-Asaguid		1993-12-18	1,2,3,4,5				1993-09-01		
3	-1074810	-1594940	17.066667	.366667	17:04:00N	0:22:00E	31QBU1971788821	NE31-09	L	LCTY		ML	00				N				TABATOULT	Tabatoult	Tabatoult	TABATOULT	Tabatoult	Tabatoult		1993-12-18	1,2,3,4,5	1			1993-09-01		
3	-1074807	-1594935	17.7175	1.153056	17:43:03N	1:09:11E	31QCV0414159892	NE31-09	L	LCTY		ML	09				N				TABARINT	Tabarint	Tabarint	TABARINT	Tabarint	Tabarint		2006-06-01	1,2,3,4,5	1			1993-09-01		
3	-1074807	-1596866	17.7175	1.153056	17:43:03N	1:09:11E	31QCV0414159892	NE31-09	L	LCTY		ML	09				V				TINTABARINT	Tin Tabarint	Tin Tabarint	TINTABARINT	Tin Tabarint	Tin Tabarint		2006-06-01	1,2,3,4,5				1993-09-01		
3	-1065829	-1582311	14.75	-11.45	14:45:00N	11:27:00W	29PKS3623332112	ND29-05	L	RESF		ML	00				N			Forêt Classée	FORETCLASSEEDEDAGDAG	Forêt Classée de Dag Dag	Foret Classee de Dag Dag	DAGDAG FORETCLASSEEDE	Dag Dag, Forêt Classée de	Dag Dag, Foret Classee de		1993-12-18	1,2,3,4,5	1			1993-09-01		
3	-1075255	-1595605	21.804722	-1.233333	21:48:17N	1:14:00W	30QXK8262712259	NF30-12	L	LCTY		ML	08				N				TAZOUIKERT	Tazouikert	Tazouikert	TAZOUIKERT	Tazouikert	Tazouikert		2006-05-25	1,2,3,4,5,6,7,8,9	1			1993-09-01		
3	-1076124	-1597021	16.718611	-1.858056	16:43:07N	1:51:29W	30QXD2173948776	NE30-15	L	LCTY		ML	08				N				TIOUAZ	Tiouaz	Tiouaz	TIOUAZ	Tiouaz	Tiouaz		2006-05-23	1,2,3,4,5,6,7,8,9	1			1993-09-01		
3	-1075402	-1595836	18.683333	.816667	18:41:00N	0:49:00E	31QBA6972967195	NE31-05	L	LCTY		ML	10				N				TERECHT	Terecht	Terecht	TERECHT	Terecht	Terecht		2006-06-01	1,2,3,4,5	1			1993-09-01		
3	-1075176	-1595481	17.652778	1.096944	17:39:10N	1:05:49E	31QBV9811652788	NE31-09	L	LCTY		ML	09				N				TARAOUE	Taraoué	Taraoue	TARAOUE	Taraoué	Taraoue		2006-06-01	1,2,3,4,5	1			1993-09-01		
3	-1076062	-1596927	17.35	-1.316667	17:21:00N	1:19:00W	30QXE7886519058	NE30-12	L	LCTY		ML	00				N				TINTEHOUN	Ti-n-Tehoun	Ti-n-Tehoun	TINTEHOUN	Ti-n-Tehoun	Ti-n-Tehoun		1993-12-18	1,2,3,4,5	1			1993-09-01		
3	-1075336	-1595737	18.8	1.5	18:48:00N	1:30:00E	31QCA4192379365	NE31-06	L	LCTY		ML	10				N				TELEILET	Teleïlet	Teleilet	TELEILET	Teleïlet	Teleilet		2006-06-02	1,2,3,4,5	1			1993-09-01		
3	-1075336	-1595748	18.8	1.5	18:48:00N	1:30:00E	31QCA4192379365	NE31-06	L	LCTY		ML	10				V				TELEYLETT	Teleylett	Teleylett	TELEYLETT	Teleylett	Teleylett		2006-06-02	1,2,3,4,5				1993-09-01		
3	-1065713	-1582158	16.731389	-1.348611	16:43:53N	1:20:55W	30QXD7604850571	NE30-16	L	LCTY		ML	08				N				CHATATARAM	Chatataram	Chatataram	CHATATARAM	Chatataram	Chatataram		2006-05-23	1,2,3,4,5,6,7,8,9	1			1993-09-01		
3	-1076134	-1597042	17.041389	1.606111	17:02:29N	1:36:22E	31QCU5165084663	NE31-10	L	LCTY		ML	09				N				TIPTAL	Tiptal	Tiptal	TIPTAL	Tiptal	Tiptal		2006-06-01	1,2,3,4,5	1			1993-09-01		
3	-1076134	-1597043	17.041389	1.606111	17:02:29N	1:36:22E	31QCU5165084663	NE31-10	L	LCTY		ML	09				V				TIPTALL	Tiptall	Tiptall	TIPTALL	Tiptall	Tiptall		2006-06-01	1,2,3,4,5				1993-09-01		
3	-1073933	-1593764	17.549444	1.130556	17:32:58N	1:07:50E	31QCV0157041315	NE31-09	L	LCTY		ML	09				N				SELRES	Selres	Selres	SELRES	Selres	Selres		2006-06-01	1,2,3,4,5	1			1993-09-01		
3	-1066578	-1583309	12.866667	-10.083333	12:52:00N	10:05:00W	29PLQ8245322638	ND29-14	L	LCTY		ML	00				N				DIOMOU	Diomou	Diomou	DIOMOU	Diomou	Diomou		1993-12-18	1,2,3,4,5	1			1993-09-01		
3	-1066578	-1583430	12.866667	-10.083333	12:52:00N	10:05:00W	29PLQ8245322638	ND29-14	L	LCTY		ML	00				V				DIOUMOU	Dioumou	Dioumou	DIOUMOU	Dioumou	Dioumou		1993-12-18	1,2,3,4,5				1993-09-01		
3	-1065405	-1581759	17.046111	.259167	17:02:46N	0:15:33E	31QBU0823686703	NE31-09	L	LCTY		ML	09				N				DAIAINBORIA	Daïa I-n-Boria	Daia I-n-Boria	DAIAINBORIA	Daïa I-n-Boria	Daia I-n-Boria		2006-06-08	1,2,3,4,5	1			1993-09-01		
3	-1073800	-1593578	12.95	-9.033333	12:57:00N	9:02:00W	29PMQ9638531607	ND29-14	L	RESF		ML	00				N				FORETCLASSEEDESEBEKORO	Forêt Classée de Sébékoro	Foret Classee de Sebekoro	SEBEKORO FORETCLASSEEDE	Sébékoro, Forêt Classée de	Sebekoro, Foret Classee de		1993-12-18	1,2,3,4,5	1			1993-09-01		
3	-1068146	-1598281	16.353333	-.013611	16:21:12N	0:00:49W	30QZD1907310363	NE30-16	L	LCTY		ML	09				V				FORETCLASSEEDEZINDIGO	Forêt Classée de Zindigo	Foret Classee de Zindigo	ZINDIGO FORETCLASSEEDE	Zindigo, Forêt Classée de	Zindigo, Foret Classee de		2006-05-24	1,2,3,4,5				1993-09-01		
3	-1068146	6406262	16.353333	-.013611	16:21:12N	0:00:49W	30QZD1907310363	NE30-16	L	LCTY		ML	09				N			Forêt Classée	FORETCLASSEEDEGAOOUZINDIGO	Forêt Classée de Gao ou Zindigo	Foret Classee de Gao ou Zindigo	GAOOUZINDIGO FORETCLASSEEDE	Gao ou Zindigo, Forêt Classée de	Gao ou Zindigo, Foret Classee de		2006-05-24	1,2,3,4,5	1			1993-09-01		
3	-1068146	-1585424	16.353333	-.013611	16:21:12N	0:00:49W	30QZD1907310363	NE30-16	L	LCTY		ML	09				V				FORETCLASSEEDEGAO	Forêt Classée de Gao	Foret Classee de Gao	GAO FORETCLASSEEDE	Gao, Forêt Classée de	Gao, Foret Classee de		2006-05-24	1,2,3,4,5				1993-09-01		
3	-1068080	-1585334	12.666667	-9.416667	12:40:00N	9:25:00W	29PMQ5475600310	ND29-14	L	RESF		ML	00				N				FORETCLASSEEDEGALE	Forêt Classée de Galé	Foret Classee de Gale	GALE FORETCLASSEEDE	Galé, Forêt Classée de	Gale, Foret Classee de		1993-12-18	1,2,3,4,5	1			1993-09-01		
3	-1075330	-1595729	18.85	.983333	18:51:00N	0:59:00E	31QBA8752285439	NE31-05	L	LCTY		ML	10				N				TELATEIT	Telâteït	Telateit	TELATEIT	Telâteït	Telateit		2006-06-01	1,2,3,4,5	1			1993-09-01		
3	-1075330	-1595726	18.85	.983333	18:51:00N	0:59:00E	31QBA8752285439	NE31-05	L	LCTY		ML	10				V				TELATAI	Telataï	Telatai	TELATAI	Telataï	Telatai		2006-06-01	1,2,3,4,5				1993-09-01		
3	-1075310	-1595696	17.09	.266111	17:05:24N	0:15:58E	31QBU0904391552	NE31-09	L	LCTY		ML	09				N				TEHABENAT	Téhabénat	Tehabenat	TEHABENAT	Téhabénat	Tehabenat		2006-06-08	1,2,3,4,5	1			1993-09-01		
3	-1063908	-1579592	18.5	.783333	18:30:00N	0:47:00E	31QBA6596146942	NE31-05	L	LCTY		ML	10				N				ABENAI	Abenaï	Abenai	ABENAI	Abenaï	Abenai		2006-06-01	1,2,3,4,5	1			1993-09-01		
3	-1076010	-1596847	17.846111	1.858333	17:50:46N	1:51:30E	31QCV7902973529	NE31-10	L	LCTY		ML	09				N				TINSAKAYE	Ti-n-Sakaye	Ti-n-Sakaye	TINSAKAYE	Ti-n-Sakaye	Ti-n-Sakaye		2006-06-01	1,2,3,4,5	1			1993-09-01		
3	-1076004	-1596837	17.116667	2.883333	17:07:00N	2:53:00E	31QDU8758992465	NE31-10	L	LCTY		ML	00				N				TINRIGUITENE	Ti-n-Riguitene	Ti-n-Riguitene	TINRIGUITENE	Ti-n-Riguitene	Ti-n-Riguitene		1993-12-18	1,2,3,4,5	1			1993-09-01		
3	-1076004	-1596835	17.116667	2.883333	17:07:00N	2:53:00E	31QDU8758992465	NE31-10	L	LCTY		ML	00				V				TINRIGITEN	Tin Rigiten	Tin Rigiten	TINRIGITEN	Tin Rigiten	Tin Rigiten		1993-12-18	1,2,3,4,5				1993-09-01		
3	-1076004	-1596836	17.116667	2.883333	17:07:00N	2:53:00E	31QDU8758992465	NE31-10	L	LCTY		ML	00				V				TINRIGUITEN	Tin Riguiten	Tin Riguiten	TINRIGUITEN	Tin Riguiten	Tin Riguiten		1993-12-18	1,2,3,4,5				1993-09-01		
3	-1075916	-1596683	16.078333	-1.605	16:04:42N	1:36:18W	30QXC4920878103	NE30-15	L	LCTY		ML	08				N				TINGOUROUANE	Ti-n-Gourouane	Ti-n-Gourouane	TINGOUROUANE	Ti-n-Gourouane	Ti-n-Gourouane		2006-05-23	1,2,3,4,5,6,7,8,9	1			1993-09-01		
3	-1075916	-1596682	16.078333	-1.605	16:04:42N	1:36:18W	30QXC4920878103	NE30-15	L	LCTY		ML	08				V				TINGOUROUAN	Tin Gourouan	Tin Gourouan	TINGOUROUAN	Tin Gourouan	Tin Gourouan		2006-05-23	1,2,3,4,5,6,7,8,9				1993-09-01		
3	-1075732	-1596392	16.67	-1.850556	16:40:12N	1:51:02W	30QXD2257043402	NE30-15	L	LCTY		ML	08				N				TINAHARA	Ti-n-Ahara	Ti-n-Ahara	TINAHARA	Ti-n-Ahara	Ti-n-Ahara		2006-05-23	1,2,3,4,5,6,7,8,9	1			1993-09-01		
3	-1075855	-1596576	17.316667	.683333	17:19:00N	0:41:00E	31QBV5376916069	NE31-09	L	LCTY		ML	00				N				TINEDIG	Ti-n-Édig	Ti-n-Edig	TINEDIG	Ti-n-Édig	Ti-n-Edig		1993-12-18	1,2,3,4,5,6,7	1			1993-09-01		
3	-1075855	14133361	17.316667	.683333	17:19:00N	0:41:00E	31QBV5376916069	NE31-09	L	LCTY		ML	00				V				TINEDIG	Tin-Édig	Tin-Edig	TINEDIG	Tin-Édig	Tin-Edig		1993-12-18	1,2,3,4,5,6,7				2013-03-04		
3	-1075035	-1595280	17.791667	1.930833	17:47:30N	1:55:51E	31QCV8667867460	NE31-10	L	LCTY		ML	09				N				TAMBAK	Tambak	Tambak	TAMBAK	Tambak	Tambak		2006-06-01	1,2,3,4,5	1			1993-09-01		
3	-1076032	-1596881	17.033611	.589444	17:02:01N	0:35:22E	31QBU4339584855	NE31-09	L	LCTY		ML	09				N				TINTADOUALE	Ti-n-Tadouale	Ti-n-Tadouale	TINTADOUALE	Ti-n-Tadouale	Ti-n-Tadouale		2006-06-08	1,2,3,4,5,6,7	1			1993-09-01		
3	-1076032	14133360	17.033611	.589444	17:02:01N	0:35:22E	31QBU4339584855	NE31-09	L	LCTY		ML	09				V				TINTADOUALE	Tin-Tadouale	Tin-Tadouale	TINTADOUALE	Tin-Tadouale	Tin-Tadouale		2006-06-08	1,2,3,4,5,6,7				2013-03-04		
3	-1075694	-1596345	18.133333	2.25	18:08:00N	2:15:00E	31QDA2066105099	NE31-06	L	LCTY		ML	00				N				TIMRAZ	Timraz	Timraz	TIMRAZ	Timraz	Timraz		1993-12-18	1,2,3,4,5	1			1993-09-01		
3	-1075694	-1596323	18.133333	2.25	18:08:00N	2:15:00E	31QDA2066105099	NE31-06	L	LCTY		ML	00				V				TIMERAS	Timeras	Timeras	TIMERAS	Timeras	Timeras		1993-12-18	1,2,3,4,5				1993-09-01		
3	-1069134	-1587030	17.706944	1.41	17:42:25N	1:24:36E	31QCV3138558475	NE31-09	L	LCTY		ML	09				N				INTARRAG	I-n-Tarrag	I-n-Tarrag	INTARRAG	I-n-Tarrag	I-n-Tarrag		2006-06-01	1,2,3,4,5	1			1993-09-01		
3	-1075945	-1596736	16.966111	-.289444	16:57:58N	0:17:22W	30QYD8866277800	NE30-16	L	LCTY		ML	09				N				TINKOUSSIT	Ti-n-Koussit	Ti-n-Koussit	TINKOUSSIT	Ti-n-Koussit	Ti-n-Koussit		2006-05-24	1,2,3,4,5	1			1993-09-01		
3	-1074945	-1595159	18.12	1.446667	18:07:12N	1:26:48E	31QCA3565504155	NE31-05	L	LCTY		ML	10				N				TAKELLOUT	Takellout	Takellout	TAKELLOUT	Takellout	Takellout		2006-06-02	1,2,3,4,5	1			1993-09-01		
3	-1074945	-1595141	18.12	1.446667	18:07:12N	1:26:48E	31QCA3565504155	NE31-05	L	LCTY		ML	10				V				TAKALLOUT	Takallout	Takallout	TAKALLOUT	Takallout	Takallout		2006-06-02	1,2,3,4,5				1993-09-01		
3	-1068736	-1586332	16.399167	-1.225	16:23:57N	1:13:30W	30QXD8955413919	NE30-16	L	LCTY		ML	08				N				IGNANENE	Ignanène	Ignanene	IGNANENE	Ignanène	Ignanene		2006-05-23	1,2,3,4,5,6,7,8,9	1			1993-09-01		
3	-1068736	-1586331	16.399167	-1.225	16:23:57N	1:13:30W	30QXD8955413919	NE30-16	L	LCTY		ML	08				V				IGNANEN	Ignanèn	Ignanen	IGNANEN	Ignanèn	Ignanen		2006-05-23	1,2,3,4,5,6,7,8,9				1993-09-01		
3	-1068729	-1586317	17.471944	1.978056	17:28:19N	1:58:41E	31QCV9149232056	NE31-10	L	LCTY		ML	09				N				IFORHARATEN	Iforharaten	Iforharaten	IFORHARATEN	Iforharaten	Iforharaten		2006-06-01	1,2,3,4,5	1			1993-09-01		
3	-1068729	-1586311	17.471944	1.978056	17:28:19N	1:58:41E	31QCV9149232056	NE31-10	L	LCTY		ML	09				V				IFOGHARATENE	Ifogharatene	Ifogharatene	IFOGHARATENE	Ifogharatene	Ifogharatene		2006-06-01	1,2,3,4,5				1993-09-01		
3	-1068729	-1586319	17.471944	1.978056	17:28:19N	1:58:41E	31QCV9149232056	NE31-10	L	LCTY		ML	09				V				IFORHARATENE	Iforharatene	Iforharatene	IFORHARATENE	Iforharatene	Iforharatene		2006-06-01	1,2,3,4,5				1993-09-01		
3	-1069262	-1587290	19.533333	2.416667	19:32:00N	2:25:00E	31QDB3880259945	NE31-02	L	LCTY		ML	10				V				ITOUKSANNARHRRHAR	Itouksan-N-Arhrrhar	Itouksan-N-Arhrrhar	ITOUKSANNARHRRHAR	Itouksan-N-Arhrrhar	Itouksan-N-Arhrrhar		2007-04-04	1,2,3,4,5				2007-04-04		
3	-1069262	-1587289	19.533333	2.416667	19:32:00N	2:25:00E	31QDB3880259945	NE31-02	L	LCTY		ML	10				V				ITOUKSANNARHARHAR	Itouksan-N-Arharhar	Itouksan-N-Arharhar	ITOUKSANNARHARHAR	Itouksan-N-Arharhar	Itouksan-N-Arharhar		2007-04-04	1,2,3,4,5				2007-04-04		
3	-1069262	-1587288	19.533333	2.416667	19:32:00N	2:25:00E	31QDB3880259945	NE31-02	L	LCTY		ML	10				N				ITOUKSANENAGHARGHAR	Itouksane-n-Agharghar	Itouksane-n-Agharghar	ITOUKSANENAGHARGHAR	Itouksane-n-Agharghar	Itouksane-n-Agharghar		2007-04-04	1,2,3,4,5	1			2007-04-04		
3	-1068546	-1586008	16.345278	-1.481667	16:20:43N	1:28:54W	30QXD6218307734	NE30-16	L	LCTY		ML	08				N				GUIA	Guia	Guia	GUIA	Guia	Guia		2006-05-23	1,2,3,4,5,6,7,8,9	1			1993-09-01		
3	-1067728	-1584862	16.0475	-.033889	16:02:51N	0:02:02W	30QZC1739576462	NE30-16	L	LCTY		ML	09				N				FARFAROGUI	Farfarogui	Farfarogui	FARFAROGUI	Farfarogui	Farfarogui		2006-05-24	1,2,3,4,5	1			1993-09-01		
3	-1074878	-1595042	18.026389	.2525	18:01:35N	0:15:09E	31QBV0909595265	NE31-05	L	LCTY		ML	09				V				TAFTOU	Taftou	Taftou	TAFTOU	Taftou	Taftou		2006-06-01	1,2,3,4,5				1993-09-01		
3	-1074878	-1595043	18.026389	.2525	18:01:35N	0:15:09E	31QBV0909595265	NE31-05	L	LCTY		ML	09				N				TAFTOUT	Taftout	Taftout	TAFTOUT	Taftout	Taftout		2006-06-01	1,2,3,4,5	1			1993-09-01		
3	-1073282	-1592866	20.083889	-.855	20:05:02N	0:51:18W	30QYH2429922207	NF30-16	L	LCTY		ML	10				N				RAZOF	Razof	Razof	RAZOF	Razof	Razof		2007-01-29	1,2,3,4,5	1			2005-04-07		
3	-1064410	-1580391	17.577222	.616389	17:34:38N	0:36:59E	31QBV4701045002	NE31-09	L	LCTY		ML	09				N				ASSALOUA	Assaloua	Assaloua	ASSALOUA	Assaloua	Assaloua		2006-06-08	1,2,3,4,5	1			1993-09-01		
3	-1069082	-1586954	17.203611	.991389	17:12:13N	0:59:29E	31QBV8639303187	NE31-09	L	LCTY		ML	09				N				INTABESSIT	I-n-Tabessit	I-n-Tabessit	INTABESSIT	I-n-Tabessit	I-n-Tabessit		2006-06-08	1,2,3,4,5,6,7	1			1993-09-01		
3	-1069082	-1587050	17.203611	.991389	17:12:13N	0:59:29E	31QBV8639303187	NE31-09	L	LCTY		ML	09				V				INTEBSIT	In Tebsit	In Tebsit	INTEBSIT	In Tebsit	In Tebsit		2006-06-08	1,2,3,4,5,6,7				1993-09-01		
3	-1069082	-1586953	17.203611	.991389	17:12:13N	0:59:29E	31QBV8639303187	NE31-09	L	LCTY		ML	09				V				INTABESIT	In-Tabesit	In-Tabesit	INTABESIT	In-Tabesit	In-Tabesit		2006-06-08	1,2,3,4,5,6,7				1993-09-01		
3	-1069216	-1592518	16	1	16:00:00N	1:00:00E	31QBT8598069965	NE31-13	L	RGN		ML	00				V				OULIMINDEN	Ouliminden	Ouliminden	OULIMINDEN	Ouliminden	Ouliminden		1993-12-18	1,2,3,4,5				1993-09-01		
3	-1069216	-1592517	16	1	16:00:00N	1:00:00E	31QBT8598069965	NE31-13	L	RGN		ML	00				V				OULIMIDDEN	Oulimidden	Oulimidden	OULIMIDDEN	Oulimidden	Oulimidden		1993-12-18	1,2,3,4,5				1993-09-01		
3	-1069216	-1587179	16	1	16:00:00N	1:00:00E	31QBT8598069965	NE31-13	L	RGN		ML	00				N				IOULLEMMEDENE	Ioullemmedene	Ioullemmedene	IOULLEMMEDENE	Ioullemmedene	Ioullemmedene		1993-12-18	1,2,3,4,5	1			1993-09-01		
3	-1069216	-1587178	16	1	16:00:00N	1:00:00E	31QBT8598069965	NE31-13	L	RGN		ML	00				V				IOULEMEDDENE	Ioulemeddène	Ioulemeddene	IOULEMEDDENE	Ioulemeddène	Ioulemeddene		1993-12-18	1,2,3,4,5				1993-09-01		
3	-1069216	-1592512	16	1	16:00:00N	1:00:00E	31QBT8598069965	NE31-13	L	RGN		ML	00				V				OULEMEDEN	Oulemeden	Oulemeden	OULEMEDEN	Oulemeden	Oulemeden		1993-12-18	1,2,3,4,5				1993-09-01		
3	-1069216	-1598047	16	1	16:00:00N	1:00:00E	31QBT8598069965	NE31-13	L	RGN		ML	00				V				YOULLEMEDDENE	Youllemeddene	Youllemeddene	YOULLEMEDDENE	Youllemeddene	Youllemeddene		1993-12-18	1,2,3,4,5				1993-09-01		
3	-1064427	-1580364	18.4	1.216667	18:24:00N	1:13:00E	31QCA1161735367	NE31-05	L	LCTY		ML	10				V				ASEK	Asek	Asek	ASEK	Asek	Asek		2006-06-02	1,2,3,4,5				1993-09-01		
3	-1064427	-1580413	18.4	1.216667	18:24:00N	1:13:00E	31QCA1161735367	NE31-05	L	LCTY		ML	10				N				ASSEK	Assek	Assek	ASSEK	Assek	Assek		2006-06-02	1,2,3,4,5	1			1993-09-01		
3	-1064416	-1580399	18.0375	.930556	18:02:15N	0:55:50E	31QBV8093195560	NE31-05	L	LCTY		ML	10				N				ASSAMED	Assamed	Assamed	ASSAMED	Assamed	Assamed		2006-06-01	1,2,3,4,5	1			1993-09-01		
3	-1064416	-1580357	18.0375	.930556	18:02:15N	0:55:50E	31QBV8093195560	NE31-05	L	LCTY		ML	10				V				ASAMED	Asamed	Asamed	ASAMED	Asamed	Asamed		2006-06-01	1,2,3,4,5				1993-09-01		
3	-1064147	-1579952	18.534444	1.498889	18:32:04N	1:29:56E	31QCA4155949976	NE31-05	L	LCTY		ML	10				N				ALEKAT	Alekat	Alekat	ALEKAT	Alekat	Alekat		2006-06-02	1,2,3,4,5	1			1993-09-01		
3	-1066202	-1582802	12.916667	-10.15	12:55:00N	10:09:00W	29PLQ7524328200	ND29-14	L	LCTY		ML	00				N				DIAKATA	Diakata	Diakata	DIAKATA	Diakata	Diakata		1993-12-18	1,2,3,4,5	1			1993-09-01		
3	-1068820	-1586488	16.717222	-1.18	16:43:02N	1:10:48W	30QXD9404249160	NE30-16	L	LCTY		ML	08				N				INAKANE	I-n-Akané	I-n-Akane	INAKANE	I-n-Akané	I-n-Akane		2006-05-23	1,2,3,4,5,6,7,8,9	1			1993-09-01		
1	-1068889	-1586606	17.516389	.9425	17:30:59N	0:56:33E	31QBV8156337863	NE31-09	L	LCTY		ML	09				V				INCHOUMAGEN	In Choumagen	In Choumagen	INCHOUMAGEN	In Choumagen	In Choumagen		2006-06-08	1,2,3,4,5				1993-09-01		
1	-1068889	-1586607	17.516389	.9425	17:30:59N	0:56:33E	31QBV8156337863	NE31-09	L	LCTY		ML	09				N				INCHOUMAGUEN	In-Choumaguen	In-Choumaguen	INCHOUMAGUEN	In-Choumaguen	In-Choumaguen		2006-06-08	1,2,3,4,5	1			1993-09-01		
1	-1068889	-1586608	17.516389	.9425	17:30:59N	0:56:33E	31QBV8156337863	NE31-09	L	LCTY		ML	09				V				INCHOUMAGUENE	I-n-Choumaguene	I-n-Choumaguene	INCHOUMAGUENE	I-n-Choumaguene	I-n-Choumaguene		2006-06-08	1,2,3,4,5				2011-05-23		
3	-1068436	-1585845	15.75	-2	15:45:00N	2:00:00W	30PXC0712841536	ND30-03	L	RGN		ML	00				N				GOURMA	Gourma	Gourma	GOURMA	Gourma	Gourma		1993-12-18	1,2,3,4,5	1			1993-09-01		
3	-1069162	-1587084	17.795278	1.035	17:47:43N	1:02:06E	31QBV9170868628	NE31-09	L	LCTY		ML	09				N				INTEKEROUAD	I-n-Tekerouad	I-n-Tekerouad	INTEKEROUAD	I-n-Tekerouad	I-n-Tekerouad		2006-06-01	1,2,3,4,5,6,7	1			1993-09-01		
3	-1069162	14132526	17.795278	1.035	17:47:43N	1:02:06E	31QBV9170868628	NE31-09	L	LCTY		ML	09				V				INTEKEROUAD	In Tekerouad	In Tekerouad	INTEKEROUAD	In Tekerouad	In Tekerouad		2006-06-01	1,2,3,4,5,6,7				2013-03-04		
3	-1069241	-1587236	19.840278	-1.845556	19:50:25N	1:50:44W	30QXG2088994220	NE30-03	L	LCTY		ML	08				V				MONTIRRELEHREME	Mont Irrélehreme	Mont Irrelehreme	IRRELEHREME MONT	Irrélehreme, Mont	Irrelehreme, Mont		2007-02-22	1,2,3,4,5,6,7				2005-04-07		
3	-1069241	-1587235	19.840278	-1.845556	19:50:25N	1:50:44W	30QXG2088994220	NE30-03	L	LCTY		ML	08				V				MONTIRREBERENE	Mont Irreberene	Mont Irreberene	IRREBERENE MONT	Irreberene, Mont	Irreberene, Mont		2007-02-22	1,2,3,4,5,6,7				2005-04-07		
3	-1069241	6629640	19.840278	-1.845556	19:50:25N	1:50:44W	30QXG2088994220	NE30-03	L	LCTY		ML	08				N				IGHEBIRENE	Ighebîrene	Ighebirene	IGHEBIRENE	Ighebîrene	Ighebirene		2007-02-22	1,2,3,4,5,6,7	1			2005-04-07		
3	-1069241	6629639	19.840278	-1.845556	19:50:25N	1:50:44W	30QXG2088994220	NE30-03	L	LCTY		ML	08				V				IRHEBIRENE	Irhebîrene	Irhebirene	IRHEBIRENE	Irhebîrene	Irhebirene		2007-02-22	1,2,3,4,5,6,7				2005-04-07		
3	-1069241	9259905	19.840278	-1.845556	19:50:25N	1:50:44W	30QXG2088994220	NE30-03	L	LCTY		ML	08				V				GORAIGEBIREN	Gora Igebiren	Gora Igebiren	IGEBIREN GORA	Igebiren, Gora	Igebiren, Gora		2007-02-22	1,2,3,4,5,6,7				2005-04-07		
3	-1064274	-1580153	16.737222	.655278	16:44:14N	0:39:19E	31QBU5001651959	NE31-13	L	AREA		ML	09				N				ANDRARAKOYEN	Andrarakoyen	Andrarakoyen	ANDRARAKOYEN	Andrarakoyen	Andrarakoyen		2006-06-08	1,2,3,4,5	1			1993-09-01		
3	-1069040	-1586879	18.7875	.041111	18:47:15N	0:02:28E	31QAA8807379911	NE31-05	L	LCTY		ML	09				N				INORHI	I-n-Orhi	I-n-Orhi	INORHI	I-n-Orhi	I-n-Orhi		2006-06-01	1,2,3,4,5	1			1993-09-01		
3	-1066844	-1583681	18.933333	.933333	18:56:00N	0:56:00E	31QBA8236094725	NE31-05	L	LCTY		ML	10				V				DOHENDAR	Dohendar	Dohendar	DOHENDAR	Dohendar	Dohendar		2006-06-01	1,2,3,4,5				1993-09-01		
3	-1066844	-1583679	18.933333	.933333	18:56:00N	0:56:00E	31QBA8236094725	NE31-05	L	LCTY		ML	10				N				DOHENDAL	Dohendal	Dohendal	DOHENDAL	Dohendal	Dohendal		2006-06-01	1,2,3,4,5	1			1993-09-01		
1	-1064466	-1580483	18.547778	-2.334167	18:32:52N	2:20:03W	30QWF7026750921	NE30-07	L	RGN		ML	08				N				AZAOUAD	Azaouâd	Azaouad	AZAOUAD	Azaouâd	Azaouad		2007-03-20	1,2,3,4,5	1			2005-04-12		
3	6312587	6406259	16.218056	-.505833	16:13:05N	0:30:21W	30QYC6663594677	NE30-16	L	LCTY		ML	09				N				LATAN	Latan	Latan	LATAN	Latan	Latan		2006-05-24	1,2,3,4	1			1993-09-01		
3	6312137	6405806	16.814444	-1.262778	16:48:52N	1:15:46W	30QXD8512059840	NE30-16	L	LCTY		ML	08				N				INKANAEN	I-n-Kanaèn	I-n-Kanaen	INKANAEN	I-n-Kanaèn	I-n-Kanaen		2006-05-23	1,2,3	1			1993-09-01		
3	6312146	6405815	16.601111	-1.055278	16:36:04N	1:03:19W	30QYD0746936435	NE30-16	L	LCTY		ML	08				N				INBAGAN	I-n-Bagan	I-n-Bagan	INBAGAN	I-n-Bagan	I-n-Bagan		2006-05-23	1,2,3	1			1993-09-01		
3	6312147	6405816	16.574444	-1.116667	16:34:28N	1:07:00W	30QYD0094533421	NE30-16	L	LCTY		ML	08				N				INABADIE	I-n-Abadié	I-n-Abadie	INABADIE	I-n-Abadié	I-n-Abadie		2006-05-23	1,2,3,4,5,6,7	1			1993-09-01		
3	6312147	14130197	16.574444	-1.116667	16:34:28N	1:07:00W	30QYD0094533421	NE30-16	L	LCTY		ML	08				V				INABADIE	In Abadié	In Abadie	INABADIE	In Abadié	In Abadie		2006-05-23	1,2,3,4,5,6,7				2013-03-01		
3	6312152	6405821	16.492222	-1.084167	16:29:32N	1:05:03W	30QYD0450124354	NE30-16	L	LCTY		ML	08				N				AKINIOUAN	Akiniouan	Akiniouan	AKINIOUAN	Akiniouan	Akiniouan		2006-05-23	1,2,3,4	1			1993-09-01		
3	6312163	6405832	16.913056	-1.338056	16:54:47N	1:20:17W	30QXD7700570684	NE30-16	L	LCTY		ML	08				N				FATEASSO	Fatéasso	Fateasso	FATEASSO	Fatéasso	Fateasso		2006-05-23	1,2,3,4	1			1993-09-01		
3	6312165	6405834	16.875833	-1.353889	16:52:33N	1:21:14W	30QXD7535366551	NE30-16	L	LCTY		ML	08				N				TINARCHOUCHA	Ti-n-Archoucha	Ti-n-Archoucha	TINARCHOUCHA	Ti-n-Archoucha	Ti-n-Archoucha		2006-05-23	1,2,3	1			1993-09-01		
3	6312166	6405835	16.861667	-1.353889	16:51:42N	1:21:14W	30QXD7536664983	NE30-16	L	LCTY		ML	08				N				TACHOURIT	Tachourit	Tachourit	TACHOURIT	Tachourit	Tachourit		2006-05-23	1,2,3,4	1			1993-09-01		
3	6313615	6407694	16.706389	.738056	16:42:23N	0:44:17E	31QBU5880748444	NE31-13	L	LCTY		ML	09				N				CHENDIERI	Chendiéri	Chendieri	CHENDIERI	Chendiéri	Chendieri		2006-06-08	1,2,3,4	1			1993-09-01		
3	6313627	6407706	16.555833	.3675	16:33:21N	0:22:03E	31QBU1905332260	NE31-13	L	AREA		ML	09				N				TESSESGAR	Tessesgar	Tessesgar	TESSESGAR	Tessesgar	Tessesgar		2006-06-08	1,2,3,4	1			1993-09-01		
3	6313628	6407707	16.513056	.401667	16:30:47N	0:24:06E	31QBU2264027477	NE31-13	L	AREA		ML	09				N				INTALIDET	I-n-Talidet	I-n-Talidet	INTALIDET	I-n-Talidet	I-n-Talidet		2006-06-08	1,2,3,4	1			1993-09-01		
3	6313631	6407710	16.450556	.051111	16:27:02N	0:03:04E	31QAU8509321071	NE31-13	L	AREA		ML	09				N				NISSIGARET	Nissigaret	Nissigaret	NISSIGARET	Nissigaret	Nissigaret		2006-06-08	1,2,3,4	1			1993-09-01		
3	6313633	6407712	16.410833	.218333	16:24:39N	0:13:06E	31QBU0290216419	NE31-13	L	AREA		ML	09				N				AFADEREKA	Afadereka	Afadereka	AFADEREKA	Afadereka	Afadereka		2006-06-08	1,2,3,4	1			1993-09-01		
3	6313315	6407200	17.602778	1.541944	17:36:10N	1:32:31E	31QCV4529146835	NE31-10	L	LCTY		ML	09				N				TINSAKAN	Ti-n-Sakan	Ti-n-Sakan	TINSAKAN	Ti-n-Sakan	Ti-n-Sakan		2006-06-01	1,2,3,4	1			1993-09-01		
3	6312439	6406111	16.543611	-.451944	16:32:37N	0:27:07W	30QYD7194730791	NE30-16	L	LCTY		ML	09				N				AGUELAZI	Aguélazi	Aguelazi	AGUELAZI	Aguélazi	Aguelazi		2006-05-24	1,2,3,4	1			1993-09-01		
3	6312446	6406118	16.526389	-.551944	16:31:35N	0:33:07W	30QYD6129228752	NE30-16	L	LCTY		ML	09				N				TARZETAK	Tarzétak	Tarzetak	TARZETAK	Tarzétak	Tarzetak		2006-05-24	1,2,3,4	1			1993-09-01		
3	6313716	6407795	17.854444	.447778	17:51:16N	0:26:52E	31QBV2952175930	NE31-09	L	LCTY		ML	09				N				SASATTEN	Sasatten	Sasatten	SASATTEN	Sasatten	Sasatten		2006-06-08	1,2,3,4	1			1993-09-01		
3	6313717	6407796	17.721389	.094444	17:43:17N	0:05:40E	31QAV9182261742	NE31-09	L	LCTY		ML	09				N				INICHAGARA	I-n-Ichagara	I-n-Ichagara	INICHAGARA	I-n-Ichagara	I-n-Ichagara		2006-06-08	1,2,3,4	1			1993-09-01		
3	6313765	6407844	18.363889	2.392778	18:21:50N	2:23:34E	31QDA3585030553	NE31-06	L	LCTY		ML	10				N				TINADROUCHENE	Ti-n-Adrouchene	Ti-n-Adrouchene	TINADROUCHENE	Ti-n-Adrouchene	Ti-n-Adrouchene		2006-06-08	1,2,3,4	1			1993-09-01		
3	6313774	6407853	18.411111	2.565556	18:24:40N	2:33:56E	31QDA5411635725	NE31-06	L	LCTY		ML	10				N				HERACHET	Herachet	Herachet	HERACHET	Herachet	Herachet		2006-06-08	1,2,3,4	1			1993-09-01		
3	6313786	6407865	18.735278	2.5175	18:44:07N	2:31:03E	31QDA4913771606	NE31-06	L	LCTY		ML	10				N				AKACHI	Akachi	Akachi	AKACHI	Akachi	Akachi		2006-06-08	1,2,3,4	1			1993-09-01		
3	6312257	6405926	16.1975	-1.928333	16:11:51N	1:55:42W	30QXC1455291081	NE30-15	L	LCTY		ML	08				N				INABELBEL	I-n-Abèlbèl	I-n-Abelbel	INABELBEL	I-n-Abèlbèl	I-n-Abelbel		2006-05-23	1,2,3	1			1993-09-01		
3	6312262	6405931	16.185	-1.718333	16:11:06N	1:43:06W	30QXC3701089826	NE30-15	L	LCTY		ML	08				N				INBAGAN	I-n-Bagan	I-n-Bagan	INBAGAN	I-n-Bagan	I-n-Bagan		2006-05-23	1,2,3	1			1993-09-01		
3	6312269	6405938	16.221111	-1.6575	16:13:16N	1:39:27W	30QXC4348893863	NE30-15	L	LCTY		ML	08				N				INALATA	I-n-Alata	I-n-Alata	INALATA	I-n-Alata	I-n-Alata		2006-05-23	1,2,3	1			1993-09-01		
3	6312272	6405941	16.241389	-1.463889	16:14:29N	1:27:50W	30QXC6416996252	NE30-16	L	LCTY		ML	08				N				INBOUFA	I-n-Boufa	I-n-Boufa	INBOUFA	I-n-Boufa	I-n-Boufa		2006-05-23	1,2,3	1			1993-09-01		
3	6312184	6405853	16.337778	-1.206667	16:20:16N	1:12:24W	30QXD9157207143	NE30-16	L	LCTY		ML	08				N				ALZENAGOROU	Alzénagorou	Alzenagorou	ALZENAGOROU	Alzénagorou	Alzenagorou		2006-05-23	1,2,3,4	1			1993-09-01		
3	6312185	6405854	16.367778	-1.230556	16:22:04N	1:13:50W	30QXD8899110440	NE30-16	L	LCTY		ML	08				N				AELD	Aèld	Aeld	AELD	Aèld	Aeld		2006-05-23	1,2,3,4	1			1993-09-01		
3	6312205	6405874	16.907778	-1.155556	16:54:28N	1:09:20W	30QXD9645370273	NE30-16	L	LCTY		ML	08				N				ALIKASSI	Alikassi	Alikassi	ALIKASSI	Alikassi	Alikassi		2006-05-23	1,2,3,4	1			1993-09-01		
3	6312207	6405876	16.879444	-1.130278	16:52:46N	1:07:49W	30QXD9917667162	NE30-16	L	LCTY		ML	08				N				INFASSAN	I-n-Fassan	I-n-Fassan	INFASSAN	I-n-Fassan	I-n-Fassan		2006-05-23	1,2,3	1			1993-09-01		
3	6313677	6407756	16.479167	.902222	16:28:45N	0:54:08E	31QBU7605623103	NE31-13	L	LCTY		ML	09				N				INBEHEKI	I-n-Beheki	I-n-Beheki	INBEHEKI	I-n-Beheki	I-n-Beheki		2006-06-08	1,2,3,4	1			1993-09-01		
3	6312279	6405948	16.190833	-1.303333	16:11:27N	1:18:12W	30QXC8137890793	NE30-16	L	LCTY		ML	08				N				INTOWELD	I-n-Towèld	I-n-Toweld	INTOWELD	I-n-Towèld	I-n-Toweld		2006-05-23	1,2,3	1			1993-09-01		
3	6312282	6405951	16.288889	-1.184722	16:17:20N	1:11:05W	30QXD9396501753	NE30-16	L	LCTY		ML	08				N				DEDIETEN	Dédiétèn	Dedieten	DEDIETEN	Dédiétèn	Dedieten		2006-05-23	1,2,3,4	1			1993-09-01		
3	6312283	6405952	16.31	-1.066389	16:18:36N	1:03:59W	30QYD0659104206	NE30-16	L	LCTY		ML	08				N				BILEMBO	Bilèmbo	Bilembo	BILEMBO	Bilèmbo	Bilembo		2006-05-23	1,2,3,4	1			1993-09-01		
3	6312286	6405955	16.803611	-1.774722	16:48:13N	1:46:29W	30QXD3056658233	NE30-15	L	LCTY		ML	08				N				ARARHARDERIN	Ararhar Dérin	Ararhar Derin	ARARHARDERIN	Ararhar Dérin	Ararhar Derin		2006-05-23	1,2,3,4	1			1993-09-01		
3	6312289	6405958	16.675278	-1.762778	16:40:31N	1:45:46W	30QXD3192744042	NE30-15	L	LCTY		ML	08				N				TINTIDOUNAN	Ti-n-Tidounan	Ti-n-Tidounan	TINTIDOUNAN	Ti-n-Tidounan	Ti-n-Tidounan		2006-05-23	1,2,3	1			1993-09-01		
3	6312294	6405963	16.677222	-1.946389	16:40:38N	1:56:47W	30QXD1234544145	NE30-15	L	LCTY		ML	08				N				TAYARETKOELET	Tayarèt Koélèt	Tayaret Koelet	TAYARETKOELET	Tayarèt Koélèt	Tayaret Koelet		2006-05-23	1,2,3,4	1			1993-09-01		
3	6312295	6405964	16.651111	-1.945	16:39:04N	1:56:42W	30QXD1250941257	NE30-15	L	LCTY		ML	08				N				AFADIET	Afadièt	Afadiet	AFADIET	Afadièt	Afadiet		2006-05-23	1,2,3,4	1			1993-09-01		
3	6312300	6405969	16.62	-1.755556	16:37:12N	1:45:20W	30QXD3273537931	NE30-15	L	LCTY		ML	08				N				TINARACHAR	Ti-n-Arachar	Ti-n-Arachar	TINARACHAR	Ti-n-Arachar	Ti-n-Arachar		2006-05-23	1,2,3	1			1993-09-01		
3	6312301	6405970	16.598333	-1.752222	16:35:54N	1:45:08W	30QXD3310635536	NE30-15	L	LCTY		ML	08				N				TINASSARER	Ti-n-Assarer	Ti-n-Assarer	TINASSARER	Ti-n-Assarer	Ti-n-Assarer		2006-05-23	1,2,3	1			1993-09-01		
3	6312302	6405971	16.535	-1.722778	16:32:06N	1:43:22W	30QXD3629228548	NE30-15	L	LCTY		ML	08				N				INNKARBAN	I-n-Nkarban	I-n-Nkarban	INNKARBAN	I-n-Nkarban	I-n-Nkarban		2006-05-23	1,2,3,4	1			1993-09-01		
3	6312304	6405973	16.541944	-1.530833	16:32:31N	1:31:51W	30QXD5677229456	NE30-15	L	LCTY		ML	08				N				TINTAFAN	Ti-n-Tafan	Ti-n-Tafan	TINTAFAN	Ti-n-Tafan	Ti-n-Tafan		2006-05-23	1,2,3	1			1993-09-01		
3	6313324	6407216	18.151111	1.064444	18:09:04N	1:03:52E	31QBA9524107982	NE31-05	L	LCTY		ML	10				N				AHARA	Ahara	Ahara	AHARA	Ahara	Ahara		2006-06-02	1,2,3,4	1			1993-09-01		
3	6313325	6407217	18.036111	1.243889	18:02:10N	1:14:38E	31QCV1410895063	NE31-05	L	LCTY		ML	10				N				TINARCHER	Tin-Archer	Tin-Archer	TINARCHER	Tin-Archer	Tin-Archer		2006-06-02	1,2,3,4	1			1993-09-01		
3	6313326	6407218	18.325556	1.186111	18:19:32N	1:11:10E	31QCA0830727159	NE31-05	L	LCTY		ML	10				N				RATRAT	Ratrat	Ratrat	RATRAT	Ratrat	Ratrat		2006-06-02	1,2,3,4	1			1993-09-01		
3	6313327	6407219	18.436944	1.272222	18:26:13N	1:16:20E	31QCA1752639399	NE31-05	L	LCTY		ML	10				N				HAOUS	Haous	Haous	HAOUS	Haous	Haous		2006-06-02	1,2,3,4	1			1993-09-01		
3	6313333	6407225	18.719167	1.513056	18:43:09N	1:30:47E	31QCA4322570407	NE31-06	L	LCTY		ML	10				N				INOURIR	In-Ourir	In-Ourir	INOURIR	In-Ourir	In-Ourir		2006-06-02	1,2,3,4	1			1993-09-01		
3	6313337	6407229	18.149444	1.723056	18:08:58N	1:43:23E	31QCA6492507188	NE31-06	L	LCTY		ML	10				N				ETAKAS	Etakas	Etakas	ETAKAS	Etakas	Etakas		2006-06-02	1,2,3,4	1			1993-09-01		
3	6313338	6407230	18.398611	1.6175	18:23:55N	1:37:03E	31QCA5396634843	NE31-06	L	LCTY		ML	10				N				TINKALOUMAN	Ti-n Kalouman	Ti-n Kalouman	TINKALOUMAN	Ti-n Kalouman	Ti-n Kalouman		2006-06-02	1,2,3,4	1			1993-09-01		
3	6313339	6407231	18.530278	1.710278	18:31:49N	1:42:37E	31QCA6387149342	NE31-06	L	LCTY		ML	10				N				TADREKINEROU	Tadrèk-I-n-Erou	Tadrek-I-n-Erou	TADREKINEROU	Tadrèk-I-n-Erou	Tadrek-I-n-Erou		2006-06-02	1,2,3,4	1			1993-09-01		
3	6312229	6405898	16.021667	-1.69	16:01:18N	1:41:24W	30QXC4015471774	NE30-15	L	LCTY		ML	08				N				TINTAKAF	Ti-n-Takaf	Ti-n-Takaf	TINTAKAF	Ti-n-Takaf	Ti-n-Takaf		2006-05-23	1,2,3	1			1993-09-01		
3	6312239	6405908	16.448333	-1.546667	16:26:54N	1:32:48W	30QXD5515719086	NE30-15	L	LCTY		ML	08				N				EFAL	Éfal	Efal	EFAL	Éfal	Efal		2006-05-23	1,2,3,4	1			1993-09-01		
3	6312241	6405910	16.367222	-1.6275	16:22:02N	1:37:39W	30QXD4658710051	NE30-15	L	LCTY		ML	08				N				TINTATOULET	Tin Tatoulèt	Tin Tatoulet	TINTATOULET	Tin Tatoulèt	Tin Tatoulet		2006-05-23	1,2,3,4	1			1993-09-01		
3	6312243	6405912	16.474722	-1.701111	16:28:29N	1:42:04W	30QXD3864721893	NE30-15	L	LCTY		ML	08				N				AKALBABECHE	Akalbabèche	Akalbabeche	AKALBABECHE	Akalbabèche	Akalbabeche		2006-05-23	1,2,3,4	1			1993-09-01		
3	6312245	6405914	16.436111	-1.761389	16:26:10N	1:45:41W	30QXD3223817581	NE30-15	L	LCTY		ML	08				N				TINARAY	Tin Aray	Tin Aray	TINARAY	Tin Aray	Tin Aray		2006-05-23	1,2,3,4	1			1993-09-01		
3	6312386	6406058	16.936111	-.060278	16:56:10N	0:03:37W	30QZD1313474829	NE30-16	L	LCTY		ML	09				N				MEYCHECHA	Mèychécha	Meychecha	MEYCHECHA	Mèychécha	Meychecha		2006-05-24	1,2,3,4	1			1993-09-01		
3	6313601	6407680	16.808056	.5575	16:48:29N	0:33:27E	31QBU3968359927	NE31-13	L	AREA		ML	09				N				TEMEUY	Temeuy	Temeuy	TEMEUY	Temeuy	Temeuy		2006-06-08	1,2,3,4	1			1993-09-01		
3	6313602	6407681	16.834722	.536667	16:50:05N	0:32:12E	31QBU3749862906	NE31-13	L	LCTY		ML	09				N				AZOA	Azoa	Azoa	AZOA	Azoa	Azoa		2006-06-08	1,2,3,4	1			1993-09-01		
3	6312593	6406269	17.294722	2.058611	17:17:41N	2:03:31E	31QCV9995012403	NE31-10	L	LCTY		ML	09				N				INABROUF	I-n-Abrouf	I-n-Abrouf	INABROUF	I-n-Abrouf	I-n-Abrouf		2006-05-25	1,2,3,4	1			1993-09-01		
3	6313729	6407808	17.02	.007222	17:01:12N	0:00:26E	31QAU8135284205	NE31-09	L	LCTY		ML	09				N				TEHEREMBA	Tèhè-Remba	Tehe-Remba	TEHEREMBA	Tèhè-Remba	Tehe-Remba		2006-06-08	1,2,3,4	1			1993-09-01		
3	6313735	6407814	17.156389	.900278	17:09:23N	0:54:01E	31QBU7664398063	NE31-09	L	LCTY		ML	09				N				INEJJI	I-n-Ejji	I-n-Ejji	INEJJI	I-n-Ejji	I-n-Ejji		2006-06-08	1,2,3,4,5,6,7	1			1993-09-01		
3	6313735	14133387	17.156389	.900278	17:09:23N	0:54:01E	31QBU7664398063	NE31-09	L	LCTY		ML	09				V				INEJJI	In Ejji	In Ejji	INEJJI	In Ejji	In Ejji		2006-06-08	1,2,3,4,5,6,7				2013-03-04		
3	6313737	6407816	17.198611	.9575	17:11:55N	0:57:27E	31QBV8278202672	NE31-09	L	LCTY		ML	09				N				ILAOUIEN	Ilaouien	Ilaouien	ILAOUIEN	Ilaouien	Ilaouien		2006-06-08	1,2,3,4	1			1993-09-01		
3	6312546	6406218	16.165278	-.368056	16:09:55N	0:22:05W	30QYC8144789018	NE30-16	L	LCTY		ML	09				N				TIBORARHIN	Tiborarhin	Tiborarhin	TIBORARHIN	Tiborarhin	Tiborarhin		2006-05-24	1,2,3,4	1			1993-09-01		
3	6312551	6406223	16.3275	-.768889	16:19:39N	0:46:08W	30QYD3836806467	NE30-16	L	LCTY		ML	09				N				DOMAGALI	Domagali	Domagali	DOMAGALI	Domagali	Domagali		2006-05-24	1,2,3,4	1			1993-09-01		
3	6312565	6406237	16.156944	-.139167	16:09:25N	0:08:21W	30QZC0595388423	NE30-16	L	LCTY		ML	09				N				ZAOUOFI	Zaouofi	Zaouofi	ZAOUOFI	Zaouofi	Zaouofi		2006-05-24	1,2,3,4	1			1993-09-01		
3	6312614	6406290	17.176389	2.818889	17:10:35N	2:49:08E	31QDU8074099077	NE31-10	L	LCTY		ML	09				N				KARKARINCHENKA	Karkar I-n-Chenka	Karkar I-n-Chenka	KARKARINCHENKA	Karkar I-n-Chenka	Karkar I-n-Chenka		2006-05-25	1,2,3,4	1			1993-09-01		
3	6312414	6406086	16.629444	-.016111	16:37:46N	0:00:58W	30QZD1835440937	NE30-16	L	LCTY		ML	09				N				INELFARAT	I-n-El Farat	I-n-El Farat	INELFARAT	I-n-El Farat	I-n-El Farat		2006-05-24	1,2,3,4	1			1993-09-01		
3	6312177	6405846	16.418333	-1.138333	16:25:06N	1:08:18W	30QXD9879316123	NE30-16	L	LCTY		ML	08				N				TENDI	Tèndi	Tendi	TENDI	Tèndi	Tendi		2006-05-23	1,2,3,4	1			1993-09-01		
3	6312621	6406297	17.815833	2.814722	17:48:57N	2:48:53E	31QDV8036669820	NE31-10	L	LCTY		ML	09				N				INAFARAT	I-n-Afarat	I-n-Afarat	INAFARAT	I-n-Afarat	I-n-Afarat		2006-05-25	1,2,3,4	1			1993-09-01		
3	6312628	6406317	21.453889	-1.266944	21:27:14N	1:16:01W	30QXJ7958573376	NF30-12	L	LCTY		ML	08				N				TAZOUIKERT	Tazouikert	Tazouikert	TAZOUIKERT	Tazouikert	Tazouikert		2006-05-25	1,2,3,4	1			1993-09-01		
3	6313708	6407787	17.419444	-1.425	17:25:10N	1:25:30W	30QXE6728826645	NE30-12	L	LCTY		ML	09				N				RETAHISSENE	Retahissene	Retahissene	RETAHISSENE	Retahissene	Retahissene		2006-06-08	1,2,3,4	1			1993-09-01		
3	6313711	6407790	17.190833	-1.0275	17:11:27N	1:01:39W	30QYE0978001734	NE30-12	L	LCTY		ML	09				N				TINHAMAMMA	Ti-n-Hamamma	Ti-n-Hamamma	TINHAMAMMA	Ti-n-Hamamma	Ti-n-Hamamma		2006-06-08	1,2,3,4	1			1993-09-01		
3	6312212	6405881	16.768611	-1.244444	16:46:07N	1:14:40W	30QXD8711954785	NE30-16	L	LCTY		ML	08				N				ACHALANDEN	Achalandèn	Achalanden	ACHALANDEN	Achalandèn	Achalanden		2006-05-23	1,2,3,4	1			1993-09-01		
3	6312216	6405885	16.688611	-1.295278	16:41:19N	1:17:43W	30QXD8177645885	NE30-16	L	LCTY		ML	08				N				INGOUCHAN	I-n-Gouchan	I-n-Gouchan	INGOUCHAN	I-n-Gouchan	I-n-Gouchan		2006-05-23	1,2,3	1			1993-09-01		
3	6312217	6405886	16.767778	-1.426389	16:46:04N	1:25:35W	30QXD6772354530	NE30-16	L	LCTY		ML	08				N				ASSAMALMAL	Assamalmal	Assamalmal	ASSAMALMAL	Assamalmal	Assamalmal		2006-05-23	1,2,3,4	1			1993-09-01		
3	6312222	6405891	16.685	-1.435556	16:41:06N	1:26:08W	30QXD6681845363	NE30-16	L	LCTY		ML	08				N				TINELABO	Ti-n-Elabo	Ti-n-Elabo	TINELABO	Ti-n-Elabo	Ti-n-Elabo		2006-05-23	1,2,3	1			1993-09-01		
3	6312223	6405892	16.7075	-1.451667	16:42:27N	1:27:06W	30QXD6508047839	NE30-16	L	LCTY		ML	08				N				INOUATEN	I-n-Ouaten	I-n-Ouaten	INOUATEN	I-n-Ouaten	I-n-Ouaten		2006-05-23	1,2,3	1			1993-09-01		
3	6312224	6405893	16.675278	-1.511111	16:40:31N	1:30:40W	30QXD5876844225	NE30-15	L	LCTY		ML	08				N				TINTANARAOUAT	Ti-n-Tanaraouat	Ti-n-Tanaraouat	TINTANARAOUAT	Ti-n-Tanaraouat	Ti-n-Tanaraouat		2006-05-23	1,2,3	1			1993-09-01		
3	6312225	6405894	16.745278	-1.507778	16:44:43N	1:30:28W	30QXD5906551974	NE30-15	L	LCTY		ML	08				N				TINCHADAN	Ti-n-Chadan	Ti-n-Chadan	TINCHADAN	Ti-n-Chadan	Ti-n-Chadan		2006-05-23	1,2,3	1			1993-09-01		
3	6312333	6406002	16.648056	-1.32	16:38:53N	1:19:12W	30QXD7917741375	NE30-16	L	LCTY		ML	08				N				TIMEGZEN	Timégzèn	Timegzen	TIMEGZEN	Timégzèn	Timegzen		2006-05-23	1,2,3,4	1			1993-09-01		
3	6312337	6406006	16.5675	-1.336389	16:34:03N	1:20:11W	30QXD7750232446	NE30-16	L	LCTY		ML	08				N				TINOUFART	Ti-n-Oufart	Ti-n-Oufart	TINOUFART	Ti-n-Oufart	Ti-n-Oufart		2006-05-23	1,2,3	1			1993-09-01		
3	6312338	6406007	16.548611	-1.317778	16:32:55N	1:19:04W	30QXD7950630372	NE30-16	L	LCTY		ML	08				N				TABAKAT	Tabakat	Tabakat	TABAKAT	Tabakat	Tabakat		2006-05-23	1,2,3,4	1			1993-09-01		
3	6312342	6406011	16.583889	-1.22	16:35:02N	1:13:12W	30QXD8990834366	NE30-16	L	LCTY		ML	08				N				AZEURZE	Azeurzé	Azeurze	AZEURZE	Azeurzé	Azeurze		2006-05-23	1,2,3,4	1			1993-09-01		
3	6312343	6406012	16.581111	-1.1925	16:34:52N	1:11:33W	30QXD9284534085	NE30-16	L	LCTY		ML	08				N				OUAIKA	Ouaika	Ouaika	OUAIKA	Ouaika	Ouaika		2006-05-23	1,2,3,4	1			1993-09-01		
3	6312348	6406017	16.001667	-1.279167	16:00:06N	1:16:45W	30QXC8413769882	NE30-16	L	LCTY		ML	08				N				NELOU	Nélou	Nelou	NELOU	Nélou	Nelou		2006-05-23	1,2,3,4	1			1993-09-01		
3	6312349	6406018	16.027222	-1.234444	16:01:38N	1:14:04W	30QXC8890072750	NE30-16	L	LCTY		ML	08				N				TINDAYDEE	Ti-n-Daydée	Ti-n-Daydee	TINDAYDEE	Ti-n-Daydée	Ti-n-Daydee		2006-05-23	1,2,3	1			1993-09-01		
3	6312354	6406023	16.055556	-1.3925	16:03:20N	1:23:33W	30QXC7196175748	NE30-16	L	LCTY		ML	08				N				MELMER	Mèlmèr	Melmer	MELMER	Mèlmèr	Melmer		2006-05-23	1,2,3,4	1			1993-09-01		
3	6312174	6405843	16.953889	-1.228333	16:57:14N	1:13:42W	30QXD8865375305	NE30-16	L	LCTY		ML	08				N				ALAMBO	Alambo	Alambo	ALAMBO	Alambo	Alambo		2006-05-23	1,2,3,4	1			1993-09-01		
3	6312127	6405796	16.813611	-1.013056	16:48:49N	1:00:47W	30QYD1174059998	NE30-16	L	LCTY		ML	08				N				OUAOU	Ouaou	Ouaou	OUAOU	Ouaou	Ouaou		2006-05-23	1,2,3,4	1			1993-09-01		
3	6312132	6405801	16.756667	-1.151111	16:45:24N	1:09:04W	30QXD9708353554	NE30-16	L	LCTY		ML	08				N				TERECHT	Térècht	Terecht	TERECHT	Térècht	Terecht		2006-05-23	1,2,3,4	1			1993-09-01		
3	6312134	6405803	16.682778	-1.083889	16:40:58N	1:05:02W	30QYD0432945444	NE30-16	L	LCTY		ML	08				N				TINADLEN	Ti-n-Adlèn	Ti-n-Adlen	TINADLEN	Ti-n-Adlèn	Ti-n-Adlen		2006-05-23	1,2,3	1			1993-09-01		
3	6312136	6405805	16.798056	-1.293056	16:47:53N	1:17:35W	30QXD8190957998	NE30-16	L	LCTY		ML	08				N				SOUTADOU	Soutadou	Soutadou	SOUTADOU	Soutadou	Soutadou		2006-05-23	1,2,3,4	1			1993-09-01		
3	6313173	6407024	18.603333	-1.957778	18:36:12N	1:57:28W	30QXF0995657257	NE30-07	L	LCTY		ML	08				N				DEMJA	Demja	Demja	DEMJA	Demja	Demja		2006-06-01	1,2,3,4	1			1993-09-01		
3	6312495	6406167	16.489444	-.81	16:29:22N	0:48:36W	30QYD3378124345	NE30-16	L	LCTY		ML	09				N				TINBALRO	Ti-n-Balro	Ti-n-Balro	TINBALRO	Ti-n-Balro	Ti-n-Balro		2006-05-24	1,2,3,4	1			1993-09-01		
3	6312209	6405878	16.820556	-1.221667	16:49:14N	1:13:18W	30QXD8949660555	NE30-16	L	LCTY		ML	08				N				CHETSIG	Chètsig	Chetsig	CHETSIG	Chètsig	Chetsig		2006-05-23	1,2,3,4	1			1993-09-01		
3	6312278	6405947	16.22	-1.286111	16:13:12N	1:17:10W	30QXC8319394036	NE30-16	L	LCTY		ML	08				N				TINLAMARAN	Ti-n-Lamaran	Ti-n-Lamaran	TINLAMARAN	Ti-n-Lamaran	Ti-n-Lamaran		2006-05-23	1,2,3	1			1993-09-01		
3	6312389	6406061	16.731944	-.771944	16:43:55N	0:46:19W	30QYD3754651232	NE30-16	L	LCTY		ML	09				N				TINTAICHAR	Ti-n-Taïchar	Ti-n-Taichar	TINTAICHAR	Ti-n-Taïchar	Ti-n-Taichar		2006-05-24	1,2,3,4	1			1993-09-01		
3	6312394	6406066	16.760556	-.038611	16:45:38N	0:02:19W	30QZD1573555421	NE30-16	L	LCTY		ML	09				N				INAGOULET	I-n-Agoulet	I-n-Agoulet	INAGOULET	I-n-Agoulet	I-n-Agoulet		2006-05-24	1,2,3,4	1			1993-09-01		
3	6312395	6406067	16.733889	-.026389	16:44:02N	0:01:35W	30QZD1708452488	NE30-16	L	LCTY		ML	09				N				INSARHAKAN	I-n-Sarhakan	I-n-Sarhakan	INSARHAKAN	I-n-Sarhakan	I-n-Sarhakan		2006-05-24	1,2,3,4	1			1993-09-01		
3	6312403	6406075	16.690833	-.7175	16:41:27N	0:43:03W	30QYD4340646747	NE30-16	L	LCTY		ML	09				N				INTOUAS	I-n-Touas	I-n-Touas	INTOUAS	I-n-Touas	I-n-Touas		2006-05-24	1,2,3,4	1			1993-09-01		
3	6312404	6406076	16.683333	-.756389	16:41:00N	0:45:23W	30QYD3926645870	NE30-16	L	LCTY		ML	09				N				INAMAKIN	I-n-Amakin	I-n-Amakin	INAMAKIN	I-n-Amakin	I-n-Amakin		2006-05-24	1,2,3,4	1			1993-09-01		
3	6312408	6406080	16.8175	-.969722	16:49:03N	0:58:11W	30QYD1635560476	NE30-16	L	LCTY		ML	09				N				KONG	Kong	Kong	KONG	Kong	Kong		2006-05-24	1,2,3,4	1			1993-09-01		
3	6312409	6406081	16.815278	-.845	16:48:55N	0:50:42W	30QYD2965460370	NE30-16	L	LCTY		ML	09				N				ZINEM	Zinèm	Zinem	ZINEM	Zinèm	Zinem		2006-05-24	1,2,3,4	1			1993-09-01		
3	6312362	6406031	16.106111	-1.771389	16:06:22N	1:46:17W	30QXC3139081064	NE30-15	L	LCTY		ML	08				N				NIANGAY	Niangay	Niangay	NIANGAY	Niangay	Niangay		2006-05-23	1,2,3,4	1			1993-09-01		
3	6312367	6406039	16.918056	-.96	16:55:05N	0:57:36W	30QYD1727771616	NE30-16	L	LCTY		ML	09				N				TEMARA	Témara	Temara	TEMARA	Témara	Temara		2006-05-24	1,2,3,4	1			1993-09-01		
3	6312369	6406041	16.873611	-.879722	16:52:25N	0:52:47W	30QYD2588366787	NE30-16	L	LCTY		ML	09				N				TINAKOUMAN	Ti-n-Akouman	Ti-n-Akouman	TINAKOUMAN	Ti-n-Akouman	Ti-n-Akouman		2006-05-24	1,2,3,4	1			1993-09-01		
3	6312370	6406042	16.849167	-.894722	16:50:57N	0:53:41W	30QYD2431364064	NE30-16	L	LCTY		ML	09				N				OUEYDADAN	Ouèy Dadan	Ouey Dadan	OUEYDADAN	Ouèy Dadan	Ouey Dadan		2006-05-24	1,2,3,4	1			1993-09-01		
3	6313152	6407003	18.966944	-1.975556	18:58:01N	1:58:32W	30QXF0784897483	NE30-07	L	LCTY		ML	08				N				KHANGSHAL	Khang Shal	Khang Shal	KHANGSHAL	Khang Shal	Khang Shal		2006-06-01	1,2,3,4	1			1993-09-01		
3	6313153	6407004	18.421667	-1.106667	18:25:18N	1:06:24W	30QXF9998137883	NE30-08	L	LCTY		ML	08				N				BOUKHANNOUFA	Bou Khannoufa	Bou Khannoufa	BOUKHANNOUFA	Bou Khannoufa	Bou Khannoufa		2006-06-01	1,2,3,4	1			1993-09-01		
3	6312307	6405976	16.578611	-1.4775	16:34:43N	1:28:39W	30QXD6243433556	NE30-16	L	LCTY		ML	08				N				TAKAMADAST	Takamadast	Takamadast	TAKAMADAST	Takamadast	Takamadast		2006-05-23	1,2,3,4	1			1993-09-01		
3	6312308	6405977	16.598056	-1.425	16:35:53N	1:25:30W	30QXD6801935751	NE30-16	L	LCTY		ML	08				N				AARA	Aara	Aara	AARA	Aara	Aara		2006-05-23	1,2,3,4	1			1993-09-01		
3	6312314	6405983	16.231111	-1.025556	16:13:52N	1:01:32W	30QYC1104095517	NE30-16	L	LCTY		ML	08				N				TINERA	Tin Era	Tin Era	TINERA	Tin Era	Tin Era		2006-05-23	1,2,3,4	1			1993-09-01		
3	6312316	6405985	16.184167	-1.071389	16:11:03N	1:04:17W	30QYC0618890275	NE30-16	L	LCTY		ML	08				N				TELORA	Télora	Telora	TELORA	Télora	Telora		2006-05-23	1,2,3,4	1			1993-09-01		
3	6312321	6405990	16.064167	-1.098611	16:03:51N	1:05:55W	30QYC0339976967	NE30-16	L	LCTY		ML	08				N				ITELKAN	Itèlkan	Itelkan	ITELKAN	Itèlkan	Itelkan		2006-05-23	1,2,3,4	1			1993-09-01		
3	6312326	6405995	16.1025	-1.304167	16:06:09N	1:18:15W	30QXC8137081018	NE30-16	L	LCTY		ML	08				N				TIMASZODJI	Timaszodji	Timaszodji	TIMASZODJI	Timaszodji	Timaszodji		2006-05-23	1,2,3,4	1			1993-09-01		
3	6312328	6405997	16.073611	-1.2925	16:04:25N	1:17:33W	30QXC8264477832	NE30-16	L	LCTY		ML	08				N				TINASSARER	Ti-n-Assarèr	Ti-n-Assarer	TINASSARER	Ti-n-Assarèr	Ti-n-Assarer		2006-05-23	1,2,3	1			1993-09-01		
3	6316605	6509168	17.848889	3.305278	17:50:56N	3:18:19E	31QEV3234573494	NE31-11	L	LCTY		ML	09				N				ENIKER	Énîker	Eniker	ENIKER	Énîker	Eniker		2006-07-10	1,2,3,4	1			1993-09-01		
3	6313149	6406993	18.199444	.643611	18:11:58N	0:38:37E	31QBA5077113853	NE31-05	L	LCTY		ML	10				N				EGLECHI	Eglechi	Eglechi	EGLECHI	Eglechi	Eglechi		2006-06-01	1,2,3,4	1			1993-09-01		
3	6313150	6406994	18.106667	.456667	18:06:24N	0:27:24E	31QBA3084703844	NE31-05	L	LCTY		ML	09				N				ASSAKEN	Assaken	Assaken	ASSAKEN	Assaken	Assaken		2006-06-01	1,2,3,4	1			1993-09-01		
3	6312117	6405786	16.835278	-1.9725	16:50:07N	1:58:21W	30QXD0947061617	NE30-15	L	LCTY		ML	08				N				DJIMA	Djima	Djima	DJIMA	Djima	Djima		2006-05-23	1,2,3,4	1			1993-09-01		
3	6312118	6405787	16.842778	-1.948333	16:50:34N	1:56:54W	30QXD1204162460	NE30-15	L	LCTY		ML	08				N				TINLAKRET	T-in-Lakrèt	T-in-Lakret	TINLAKRET	T-in-Lakrèt	T-in-Lakret		2006-05-23	1,2,3	1			1993-09-01		
3	6312119	6405788	16.883611	-1.860833	16:53:01N	1:51:39W	30QXD2133867030	NE30-15	L	LCTY		ML	08				N				MODIYOUSSOUF	Modi Youssouf	Modi Youssouf	MODIYOUSSOUF	Modi Youssouf	Modi Youssouf		2006-05-23	1,2,3,4	1			1993-09-01		
3	6312121	6405790	16.920278	-1.6025	16:55:13N	1:36:09W	30QXD4883071264	NE30-15	L	LCTY		ML	08				N				INTADAN	I-n-Tadan	I-n-Tadan	INTADAN	I-n-Tadan	I-n-Tadan		2006-05-23	1,2,3	1			1993-09-01		
3	6312124	6405793	16.850556	-1.115278	16:51:02N	1:06:55W	30QYD0080563981	NE30-16	L	LCTY		ML	08				N				ALANKOT	Alankot	Alankot	ALANKOT	Alankot	Alankot		2006-05-23	1,2,3,4	1			1993-09-01		
3	6331637	6543258	17.324167	4.116667	17:19:27N	4:07:00E	31QFV1866215761	NE31-11	L	AREA		ML	09				N				ELGHAMELLA	El Ghamélla	El Ghamella	ELGHAMELLA	El Ghamélla	El Ghamella		2006-10-13	1,2,3,4	1			1993-09-01		
3	6385052	6629589	19.544167	-2.417222	19:32:39N	2:25:02W	30QWG6113661144	NE30-03	L	LCTY		ML	08				N				TAMANDOURIT	Tamandourit	Tamandourit	TAMANDOURIT	Tamandourit	Tamandourit		2007-02-22	1,2,3,4	1			1993-09-01		
3	6383284	6619006	18.935556	-3.5425	18:56:08N	3:32:33W	30QVF4287993785	NE30-06	L	AREA		ML	08				N				TINTABALET	Ti-n-Tabalet	Ti-n-Tabalet	TINTABALET	Ti-n-Tabalet	Ti-n-Tabalet		2007-02-14	1,2,3,4	1			1993-09-01		
3	6383291	6619013	18.866667	-3.424167	18:52:00N	3:25:27W	30QVF5532186128	NE30-06	L	AREA		ML	08				N				ELOUTEID	El Outeïd	El Outeid	ELOUTEID	El Outeïd	El Outeid		2007-02-14	1,2,3,4	1			1993-09-01		
3	6383295	6619017	18.624722	-3.116944	18:37:29N	3:07:01W	30QVF8766459309	NE30-06	L	AREA		ML	08				N				MESMOUSSA	Mesmoussa	Mesmoussa	MESMOUSSA	Mesmoussa	Mesmoussa		2007-02-14	1,2,3,4	1			1993-09-01		
3	6383302	6619024	18.855278	-3.4425	18:51:19N	3:26:33W	30QVF5338684873	NE30-06	L	AREA		ML	08				N				MEGSEMIGUELLAD	Megsem Iguellad	Megsem Iguellad	MEGSEMIGUELLAD	Megsem Iguellad	Megsem Iguellad		2007-02-14	1,2,3,4	1			1993-09-01		
3	6383303	6619025	18.844167	-3.474167	18:50:39N	3:28:27W	30QVF5004783652	NE30-06	L	AREA		ML	08				N				MEGSEMMOULAYALI	Megsem Moulay Ali	Megsem Moulay Ali	MEGSEMMOULAYALI	Megsem Moulay Ali	Megsem Moulay Ali		2007-02-14	1,2,3,4	1			1993-09-01		
3	6400763	6720450	17.8825	-.040833	17:52:57N	0:02:27W	30QZE1358679674	NE30-12	L	LCTY		ML	09				N				ANGABORI	Angabori	Angabori	ANGABORI	Angabori	Angabori		2007-04-10	1,2,3,4	1			2007-04-10		
3	6400848	6720535	17.053889	-.581389	17:03:14N	0:34:53W	30QYD5743587111	NE30-12	L	LCTY		ML	09				N				ERECHRANE	Erechrane	Erechrane	ERECHRANE	Erechrane	Erechrane		2007-04-10	1,2,3,4	1			2007-04-10		
3	6400850	6720537	17.006667	-.532222	17:00:24N	0:31:56W	30QYD6273781948	NE30-12	L	LCTY		ML	09				N				INAKALKALANE	I-n-Akalkalane	I-n-Akalkalane	INAKALKALANE	I-n-Akalkalane	I-n-Akalkalane		2007-04-10	1,2,3,4	1			2007-04-10		
3	6400862	6720549	17.021667	-.949444	17:01:18N	0:56:58W	30QYD1828283096	NE30-12	L	AREA		ML	09				N				KELGUERICHOUANE	Kel Guerichouane	Kel Guerichouane	KELGUERICHOUANE	Kel Guerichouane	Kel Guerichouane		2007-04-10	1,2,3,4	1			2007-04-10		
3	6400807	6720494	17.385556	-.528333	17:23:08N	0:31:42W	30QYE6261623901	NE30-12	L	LCTY		ML	09				N				TINHOUDAD	Ti-n-Houdad	Ti-n-Houdad	TINHOUDAD	Ti-n-Houdad	Ti-n-Houdad		2007-04-10	1,2,3,4	1			2007-04-10		
3	6400808	6720495	17.380833	-.588889	17:22:51N	0:35:20W	30QYE5618523296	NE30-12	L	LCTY		ML	09				N				AGOUNI	Agouni	Agouni	AGOUNI	Agouni	Agouni		2007-04-10	1,2,3,4	1			2007-04-10		
3	6410483	6748839	17.399444	-5.413611	17:23:58N	5:24:49W	30QTE4357525360	NE30-09	L	LCTY		ML	08				N				ACHOUEIFELAKLE	Achoueïf el ’Aklé	Achoueif el 'Akle	ACHOUEIFELAKLE	Achoueïf el ’Aklé	Achoueif el 'Akle		2007-04-30	1,2,3,4	1			2007-04-30		
3	6417870	6762031	16.780833	-5.403056	16:46:51N	5:24:11W	30QTD4385256861	NE30-13	L	LCTY		ML	08				N				ELFREIOUA	El Freïoua	El Freioua	ELFREIOUA	El Freïoua	El Freioua		2007-05-21	1,2,3,4	1			2007-05-21		
3	6417871	6762032	16.6825	-5.292222	16:40:57N	5:17:32W	30QTD5554745836	NE30-13	L	LCTY		ML	08				N				BOUKREIREELABIAD	Bou Kreïré el Abiad	Bou Kreire el Abiad	BOUKREIREELABIAD	Bou Kreïré el Abiad	Bou Kreire el Abiad		2007-05-21	1,2,3,4	1			2007-05-21		
3	6410475	6748831	17.1	-5.459167	17:06:00N	5:27:33W	30QTD3831192270	NE30-09	L	AREA		ML	08				N				AGOUADIR	Agouâdîr	Agouadir	AGOUADIR	Agouâdîr	Agouadir		2007-04-30	1,2,3,4	1			2007-04-30		
3	6410480	6748836	17.375833	-5.142222	17:22:33N	5:08:32W	30QTE7239022403	NE30-09	L	LCTY		ML	08				N				OUMMTOUICHTIYYE	Oumm Touichtiyyé	Oumm Touichtiyye	OUMMTOUICHTIYYE	Oumm Touichtiyyé	Oumm Touichtiyye		2007-04-30	1,2,3,4	1			2007-04-30		
3	6398482	6697861	19.501111	-3.576944	19:30:04N	3:34:37W	30QVG3946056378	NE30-02	L	LCTY		ML	08				N				NEBKETACHAIF	Nebket Achaïf	Nebket Achaif	NEBKETACHAIF	Nebket Achaïf	Nebket Achaif		2007-03-16	1,2,3,4	1			2007-03-16		
3	6383319	6619041	18.231944	-3.374444	18:13:55N	3:22:28W	30QVF6041215888	NE30-06	L	AREA		ML	08				N				DJENAYA	Djenaya	Djenaya	DJENAYA	Djenaya	Djenaya		2007-02-14	1,2,3,4	1			1993-09-01		
3	6383323	6619045	18.065833	-3.293056	18:03:57N	3:17:35W	30QVE6898897494	NE30-06	L	AREA		ML	08				N				ARIGELFRAIS	’Arîg el Fraïs	'Arig el Frais	ARIGELFRAIS	’Arîg el Fraïs	'Arig el Frais		2007-02-14	1,2,3,4	1			1993-09-01		
3	6400229	6719555	19.956111	2.095556	19:57:22N	2:05:44E	31QDC0536106880	NE31-02	L	LCTY		ML	10				N				INELOK	I-n-Elok	I-n-Elok	INELOK	I-n-Elok	I-n-Elok		2007-04-04	1,2,3,4	1			2007-04-04		
3	6400232	6719558	19.804722	2.163611	19:48:17N	2:09:49E	31QDB1240090089	NE31-02	L	LCTY		ML	10				N				AOURIR	Aourir	Aourir	AOURIR	Aourir	Aourir		2007-04-04	1,2,3,4	1			2007-04-04		
3	6400772	6720459	17.71	-.565556	17:42:36N	0:33:56W	30QYE5819859771	NE30-12	L	LCTY		ML	09				N				INADARAS	I-n-Adaras	I-n-Adaras	INADARAS	I-n-Adaras	I-n-Adaras		2007-04-10	1,2,3,4	1			2007-04-10		
3	6400779	6720466	17.564444	-.328056	17:33:52N	0:19:41W	30QYE8363043995	NE30-12	L	LCTY		ML	09				N				INBELLIBELLEN	I-n-Bellibellen	I-n-Bellibellen	INBELLIBELLEN	I-n-Bellibellen	I-n-Bellibellen		2007-04-10	1,2,3,4	1			2007-04-10		
3	6400797	6720484	17.407222	-.235278	17:24:26N	0:14:07W	30QYE9373726726	NE30-12	L	AREA		ML	09				N				OULADSIDIELMOCTAR	Oulad Sidi el Moctar	Oulad Sidi el Moctar	OULADSIDIELMOCTAR	Oulad Sidi el Moctar	Oulad Sidi el Moctar		2007-04-10	1,2,3,4	1			2007-04-10		
3	6400235	6719561	19.940833	2.302222	19:56:27N	2:18:08E	31QDC2698005086	NE31-02	L	LCTY		ML	10				N				TASSEALT	Tasséalt	Tassealt	TASSEALT	Tasséalt	Tassealt		2007-04-04	1,2,3,4	1			2007-04-04		
3	6400249	6719618	19.5725	2.5675	19:34:21N	2:34:03E	31QDB5463764233	NE31-02	L	LCTY		ML	10				N				TIBELAGHINE	Tibelaghine	Tibelaghine	TIBELAGHINE	Tibelaghine	Tibelaghine		2007-04-04	1,2,3,4	1			2007-04-04		
3	9132024	9171306	17.366667	.087222	17:22:00N	0:05:14E	31QAV9045322468	NE31-09	L	LCTY		ML	09				N				ALMOUSTARAST	Almoustarast	Almoustarast	ALMOUSTARAST	Almoustarast	Almoustarast		2006-06-08	1,2,3,4,5,6,7,8,9	1			2003-07-31		
3	9197478	6631511	19.348056	-1.045556	19:20:53N	1:02:44W	30QYG0530540500	NE30-04	L	LCTY		ML	10				N				OUEDINIS	Oued Inis	Oued Inis	OUEDINIS	Oued Inis	Oued Inis		2007-02-23	1,2,3,4	1			2005-04-07		
3	9197478	9259925	19.348056	-1.045556	19:20:53N	1:02:44W	30QYG0530540500	NE30-04	L	LCTY		ML	10				V				UEDINIS	Ued-Inis	Ued-Inis	UEDINIS	Ued-Inis	Ued-Inis		2007-02-23	1,2,3,4				2005-04-07		
3	9205314	9272521	19.583333	-2.133333	19:35:00N	2:08:00W	30QWG9089765604	NE30-03	L	LCTY		ML	08				V				TIHET	Tihet	Tihet	TIHET	Tihet	Tihet		2007-03-05	1,2,3,4				2007-03-05		
3	9205314	9272434	19.583333	-2.133333	19:35:00N	2:08:00W	30QWG9089765604	NE30-03	L	LCTY		ML	08				V				TIKHET	Tikhet	Tikhet	TIKHET	Tikhet	Tikhet		2007-03-05	1,2,3,4				2007-03-05		
3	9205314	6629590	19.583333	-2.133333	19:35:00N	2:08:00W	30QWG9089765604	NE30-03	L	LCTY		ML	08				N				TIKRET	Tikret	Tikret	TIKRET	Tikret	Tikret		2007-03-05	1,2,3,4	1			2007-03-05		
3	9199132	6642832	19.421667	.643611	19:25:18N	0:38:37E	31QBB5256749178	NE31-01	L	LCTY		ML	10				N				TESSAOUAFET	Tessaouafet	Tessaouafet	TESSAOUAFET	Tessaouafet	Tessaouafet		2007-03-02	1,2,3,4	1			2005-04-07		
3	9199132	9262610	19.421667	.643611	19:25:18N	0:38:37E	31QBB5256749178	NE31-01	L	LCTY		ML	10				V				TESAVAFET	Tesavafet	Tesavafet	TESAVAFET	Tesavafet	Tesavafet		2007-03-02	1,2,3,4				2005-04-07		
3	9203948	6719565	20.141111	2.184167	20:08:28N	2:11:03E	31QDC1473427306	NF31-14	L	LCTY		ML	10				N				TIDEBDABINE	Tidebdabine	Tidebdabine	TIDEBDABINE	Tidebdabine	Tidebdabine		2007-04-04	1,2,3,4	1			2007-04-04		
3	9203385	9269838	20.621389	1.224444	20:37:17N	1:13:28E	31QCC1498581257	NF31-13	L	LCTY		ML	10				N				TAMEREZAR	Tamerezar	Tamerezar	TAMEREZAR	Tamerezar	Tamerezar		2007-02-01	1,2,3,4	1			2005-04-07		
1	-1072487	-1591658	15.9128	-4.0168	15:54:46N	4:01:00W	30PUC9115959555	ND30-02	L	RESF		ML	08				N			Forêt Classée	FORETCLASSEEDENIAFOUNKESUD	Forêt Classée de Niafounké-Sud	Foret Classee de Niafounke-Sud	NIAFOUNKESUD FORETCLASSEEDE	Niafounké-Sud, Forêt Classée de	Niafounke-Sud, Foret Classee de		2008-01-03	1,2,3,4,5	1			2009-10-14		
3	6400839	6720526	17.099444	-.46	17:05:58N	0:27:36W	30QYD7029792319	NE30-12	L	LCTY		ML	09				N				TINOULELAG	Ti-n-Oulèlag	Ti-n-Oulelag	TINOULELAG	Ti-n-Oulèlag	Ti-n-Oulelag		2007-04-10	1,2,3,4	1			2007-04-10		
3	6400805	6720492	17.452222	-.558333	17:27:08N	0:33:30W	30QYE5933231241	NE30-12	L	LCTY		ML	09				N				TINGOUYENE	Ti-n-Gouyene	Ti-n-Gouyene	TINGOUYENE	Ti-n-Gouyene	Ti-n-Gouyene		2007-04-10	1,2,3,4	1			2007-04-10		
3	6400833	6720520	17.125833	-.015	17:07:33N	0:00:54W	30QZD1764095913	NE30-12	L	LCTY		ML	09				N				BIRBERE	Birbéré	Birbere	BIRBERE	Birbéré	Birbere		2007-04-10	1,2,3,4	1			2007-04-10		
3	6312246	6405915	16.423611	-1.748611	16:25:25N	1:44:55W	30QXD3361116206	NE30-15	L	LCTY		ML	08				N				TINTADEINI	Tin Tadéini	Tin Tadeini	TINTADEINI	Tin Tadéini	Tin Tadeini		2006-05-23	1,2,3,4	1			1993-09-01		
3	6312399	6406071	16.710556	-.631389	16:42:38N	0:37:53W	30QYD5256749037	NE30-16	L	LCTY		ML	09				N				INEDEM	I-n-Edèm	I-n-Edem	INEDEM	I-n-Edèm	I-n-Edem		2006-05-24	1,2,3,4	1			1993-09-01		
3	6312344	6406013	16.551389	-1.203333	16:33:05N	1:12:12W	30QXD9171930785	NE30-16	L	LCTY		ML	08				N				TITOLAOIN	Titolaoin	Titolaoin	TITOLAOIN	Titolaoin	Titolaoin		2006-05-23	1,2,3,4	1			1993-09-01		
3	6312352	6406021	16.123333	-1.514444	16:07:24N	1:30:52W	30QXC5885983150	NE30-15	L	LCTY		ML	08				N				INKORMA	I-n-Korma	I-n-Korma	INKORMA	I-n-Korma	I-n-Korma		2006-05-23	1,2,3	1			1993-09-01		
3	6313340	6407232	18.935278	1.790278	18:56:07N	1:47:25E	31QCA7262094103	NE31-06	L	LCTY		ML	10				N				GARATABAGOUT	Gara-Tabagout	Gara-Tabagout	GARATABAGOUT	Gara-Tabagout	Gara-Tabagout		2006-06-02	1,2,3,4	1			1993-09-01		
3	-1073951	-1593789	18.783333	1.516667	18:47:00N	1:31:00E	31QCA4366477506	NE31-06	L	LCTY		ML	10				V				SENDEMAT	Sendemat	Sendemat	SENDEMAT	Sendemat	Sendemat		2006-06-02	1,2,3,4,5				1993-09-01		
3	-1073951	-1593791	18.783333	1.516667	18:47:00N	1:31:00E	31QCA4366477506	NE31-06	L	LCTY		ML	10				V				SENDEMATT	Sendematt	Sendematt	SENDEMATT	Sendematt	Sendematt		2006-06-02	1,2,3,4,5				1993-09-01		
3	-1073951	-1593793	18.783333	1.516667	18:47:00N	1:31:00E	31QCA4366477506	NE31-06	L	LCTY		ML	10				N				SENDEMENE	Sendemene	Sendemene	SENDEMENE	Sendemene	Sendemene		2006-06-02	1,2,3,4,5	1			1993-09-01		
3	-1073951	-1593795	18.783333	1.516667	18:47:00N	1:31:00E	31QCA4366477506	NE31-06	L	LCTY		ML	10				V				SENDMEN	Sendmen	Sendmen	SENDMEN	Sendmen	Sendmen		2006-06-02	1,2,3,4,5				1993-09-01		
3	-1063948	-1579658	17.343056	.971944	17:20:35N	0:58:19E	31QBV8448618644	NE31-09	L	LCTY		ML	09				N				ADERNAKILI	Adernakili	Adernakili	ADERNAKILI	Adernakili	Adernakili		2006-06-08	1,2,3,4,5	1			1993-09-01		
3	-1069265	-1587295	20.436111	1.229722	20:26:10N	1:13:47E	31QCC1531360739	NF31-13	L	LCTY		ML	10				N				IZELILENE	Izelilene	Izelilene	IZELILENE	Izelilene	Izelilene		2007-02-02	1,2,3,4,5	1			2005-04-07		
3	-1069265	9269829	20.436111	1.229722	20:26:10N	1:13:47E	31QCC1531360739	NF31-13	L	LCTY		ML	10				V				IZELILEN	Izelilen	Izelilen	IZELILEN	Izelilen	Izelilen		2007-02-02	1,2,3,4,5				2005-04-07		
1	6383322	6619044	18.12	-3.283611	18:07:12N	3:17:01W	30QVF6999603485	NE30-06	L	AREA		ML	08				N				AGUEITASSABAI	Agueït Assabaï	Agueit Assabai	AGUEITASSABAI	Agueït Assabaï	Agueit Assabai		2007-02-14	1,2,3,4	1			2008-09-18		
3	-1074844	-1594986	20.505	-.033611	20:30:18N	0:02:01W	30QZH0940370174	NF30-16	L	LCTY		ML	10				N				TADHAK	Tadhak	Tadhak	TADHAK	Tadhak	Tadhak		2007-01-29	1,2,3,4,5	1			2005-04-07		
3	-1074844	9258914	20.505	-.033611	20:30:18N	0:02:01W	30QZH0940370174	NF30-16	L	LCTY		ML	10				V				TADAK	Tadak	Tadak	TADAK	Tadak	Tadak		2007-01-29	1,2,3,4,5				2005-04-07		
3	-1074844	-1594987	20.505	-.033611	20:30:18N	0:02:01W	30QZH0940370174	NF30-16	L	LCTY		ML	10				V				TADHAT	Tadhat	Tadhat	TADHAT	Tadhat	Tadhat		2007-01-29	1,2,3,4,5				2005-04-07		
3	-1068724	-1586303	17.835278	1.0325	17:50:07N	1:01:57E	31QBV9148973058	NE31-09	L	LCTY		ML	09				N				IFANGARA	Ifangara	Ifangara	IFANGARA	Ifangara	Ifangara		2006-06-01	1,2,3,4,5	1			1993-09-01		
3	6312617	6406293	17.230278	2.886667	17:13:49N	2:53:12E	31QDV8795105033	NE31-10	L	LCTY		ML	09				N				TEKNEOUINE	Têknéouîne	Tekneouine	TEKNEOUINE	Têknéouîne	Tekneouine		2006-05-25	1,2,3,4	1			1993-09-01		
3	6312625	6406301	17.588889	2.7525	17:35:20N	2:45:09E	31QDV7373944720	NE31-10	L	LCTY		ML	09				N				TINCHERIFENE	Ti-n-Cherifene	Ti-n-Cherifene	TINCHERIFENE	Ti-n-Cherifene	Ti-n-Cherifene		2006-05-25	1,2,3,4	1			1993-09-01		
3	6316613	6509176	17.45	3.344722	17:27:00N	3:20:41E	31QEV3660529370	NE31-11	L	LCTY		ML	09				N				TINAFARAT	Ti-n-Afarat	Ti-n-Afarat	TINAFARAT	Ti-n-Afarat	Ti-n-Afarat		2006-07-10	1,2,3,4	1			1993-09-01		
3	6312204	6405873	16.91	-1.109444	16:54:36N	1:06:34W	30QYD0136370565	NE30-16	L	LCTY		ML	08				N				ABRECHEGA	Abréchéga	Abrechega	ABRECHEGA	Abréchéga	Abrechega		2006-05-23	1,2,3,4	1			1993-09-01		
3	6312213	6405882	16.770278	-1.198056	16:46:13N	1:11:53W	30QXD9206355014	NE30-16	L	LCTY		ML	08				N				TINOUARAN	Ti-n-Ouaran	Ti-n-Ouaran	TINOUARAN	Ti-n-Ouaran	Ti-n-Ouaran		2006-05-23	1,2,3	1			1993-09-01		
3	6312130	6405799	16.726667	-1.105	16:43:36N	1:06:18W	30QYD0203150280	NE30-16	L	LCTY		ML	08				N				TINERAY	Ti-n-Eray	Ti-n-Eray	TINERAY	Ti-n-Eray	Ti-n-Eray		2006-05-23	1,2,3	1			1993-09-01		
1	6399869	6719140	18.957906	-2.904594	18:57:28N	2:54:17W	30QWF1004496173	NE30-07	L	LCTY		ML	08				N				ICHIAFYARBA	Ichiaf Yarba	Ichiaf Yarba	ICHIAFYARBA	Ichiaf Yarba	Ichiaf Yarba		2009-11-06	1,2,3,4	1			1993-09-01		
1	6399872	6719143	18.597907	-2.383061	18:35:52N	2:22:59W	30QWF6508856449	NE30-07	L	LCTY		ML	08				N				ELGRAYER	El Grâyer	El Grayer	ELGRAYER	El Grâyer	El Grayer		2009-11-06	1,2,3,4	1			1993-09-01		
1	6399875	6719146	18.712135	-2.864228	18:42:44N	2:51:51W	30QWF1431468982	NE30-07	L	LCTY		ML	08				N				MESMOUSSA	Mesmoussa	Mesmoussa	MESMOUSSA	Mesmoussa	Mesmoussa		2009-11-06	1,2,3,4	1			1993-09-01		
1	6399885	6719156	18.415396	-2.089304	18:24:55N	2:05:21W	30QWF9618436386	NE30-07	L	LCTY		ML	08				N				SREITEG	Sreïteg	Sreiteg	SREITEG	Sreïteg	Sreiteg		2009-11-06	1,2,3,4	1			1993-09-01		
3	-1075373	-1595795	17.068889	.260556	17:04:08N	0:15:38E	31QBU0841989223	NE31-09	L	LCTY		ML	09				N				DAIATENEKIAD	Daïa Ténékiad	Daia Tenekiad	DAIATENEKIAD	Daïa Ténékiad	Daia Tenekiad		2006-06-08	1,2,3,4,5	1			1993-09-01		
3	6313781	6407860	18.600278	3.498333	18:36:01N	3:29:54E	31QEA5257456673	NE31-07	L	AREA		ML	10				N				TAMESNA	Tamesna	Tamesna	TAMESNA	Tamesna	Tamesna		2006-06-27	1,2,3,4	1			1993-09-01		
3	6312270	6405939	16.168056	-1.616389	16:10:05N	1:36:59W	30QXC4792388022	NE30-15	L	LCTY		ML	08				N				ZINDIKI	Zindiki	Zindiki	ZINDIKI	Zindiki	Zindiki		2006-05-23	1,2,3,4	1			1993-09-01		
3	6400780	6720467	17.550556	-.300833	17:33:02N	0:18:03W	30QYE8654342498	NE30-12	L	LCTY		ML	09				N				ERRAIK	Er Raïk	Er Raik	ERRAIK	Er Raïk	Er Raik		2007-04-10	1,2,3,4	1			2007-04-10		
3	6312135	6405804	16.705556	-1.025	16:42:20N	1:01:30W	30QYD1058648026	NE30-16	L	LCTY		ML	08				N				DIOUAY	Diouay	Diouay	DIOUAY	Diouay	Diouay		2006-05-23	1,2,3,4	1			1993-09-01		
3	6312155	6405824	16.435556	-1.075	16:26:08N	1:04:30W	30QYD0553918092	NE30-16	L	LCTY		ML	08				N				INDANGAN	I-n-Dangan	I-n-Dangan	INDANGAN	I-n-Dangan	I-n-Dangan		2006-05-23	1,2,3	1			1993-09-01		
3	6312160	6405829	16.916389	-1.409444	16:54:59N	1:24:34W	30QXD6939770990	NE30-16	L	LCTY		ML	08				N				TIKINIOUIN	Tikiniouin	Tikiniouin	TIKINIOUIN	Tikiniouin	Tikiniouin		2006-05-23	1,2,3,4	1			1993-09-01		
3	6312167	6405836	16.846667	-1.348889	16:50:48N	1:20:56W	30QXD7591263327	NE30-16	L	LCTY		ML	08				N				LOWENDI	Lowèndi	Lowendi	LOWENDI	Lowèndi	Lowendi		2006-05-23	1,2,3,4	1			1993-09-01		
3	6312175	6405844	16.867222	-1.235278	16:52:02N	1:14:07W	30QXD8799965707	NE30-16	L	LCTY		ML	08				N				TALOUBIE	Taloubié	Taloubie	TALOUBIE	Taloubié	Taloubie		2006-05-23	1,2,3,4	1			1993-09-01		
3	6313328	6407220	18.687778	1.386667	18:41:16N	1:23:12E	31QCA2986567049	NE31-05	L	LCTY		ML	10				N				EBELEL	Ebelel	Ebelel	EBELEL	Ebelel	Ebelel		2006-06-02	1,2,3,4	1			1993-09-01		
3	6313334	6407226	18.737222	1.538611	18:44:14N	1:32:19E	31QCA4593672383	NE31-06	L	LCTY		ML	10				N				INACHIOU	I-n-Achiou	I-n-Achiou	INACHIOU	I-n-Achiou	I-n-Achiou		2006-06-02	1,2,3,4	1			1993-09-01		
3	6313154	6407005	18.6675	-1.166389	18:40:03N	1:09:59W	30QXF9339465028	NE30-08	L	LCTY		ML	08				N				AGGOURA	Aggoura	Aggoura	AGGOURA	Aggoura	Aggoura		2006-06-01	1,2,3,4	1			1993-09-01		
3	6313176	6407027	18.625	-1.688333	18:37:30N	1:41:18W	30QXF3836959841	NE30-07	L	LCTY		ML	08				N				TINOUEZZAG	Ti-n-Ouezzag	Ti-n-Ouezzag	TINOUEZZAG	Ti-n-Ouezzag	Ti-n-Ouezzag		2006-06-01	1,2,3,4	1			1993-09-01		
3	-1069061	-1586921	17.071111	-.125833	17:04:16N	0:07:33W	30QZD0592789676	NE30-12	L	LCTY		ML	09				N				INROUTOUBA	I-n-Routouba	I-n-Routouba	INROUTOUBA	I-n-Routouba	I-n-Routouba		2007-04-10	1,2,3,4,5	1			2007-04-10		
3	-1069061	-1592905	17.071111	-.125833	17:04:16N	0:07:33W	30QZD0592789676	NE30-12	L	LCTY		ML	09				V				MONTINROUTOUBA	Mont In Routouba	Mont In Routouba	INROUTOUBA MONT	In Routouba, Mont	In Routouba, Mont		2007-04-10	1,2,3,4,5				2007-04-10		
3	-1068555	-1586019	16.239444	-.059167	16:14:22N	0:03:33W	30QZC1438497679	NE30-16	L	RESF		ML	09				N			Forêt Classée	FORETCLASSEEDEGUIDIRA	Forêt Classée de Guidira	Foret Classee de Guidira	GUIDIRA FORETCLASSEEDE	Guidira, Forêt Classée de	Guidira, Foret Classee de		2006-05-24	1,2,3,4,5	1			1993-09-01		
3	6312271	6405940	16.304722	-1.411389	16:18:17N	1:24:41W	30QXD6972603303	NE30-16	L	LCTY		ML	08				N				INECHOUMAD	I-n-Echoumad	I-n-Echoumad	INECHOUMAD	I-n-Echoumad	I-n-Echoumad		2006-05-23	1,2,3	1			1993-09-01		
3	6313612	6407691	16.728056	.423056	16:43:41N	0:25:23E	31QBU2523151251	NE31-13	L	AREA		ML	09				N				TELEFANA	Téléfana	Telefana	TELEFANA	Téléfana	Telefana		2006-06-08	1,2,3,4	1			1993-09-01		
3	6312120	6405789	16.953056	-1.606111	16:57:11N	1:36:22W	30QXD4841974888	NE30-15	L	LCTY		ML	08				N				INSAMSAM	I-n-Samsam	I-n-Samsam	INSAMSAM	I-n-Samsam	I-n-Samsam		2006-05-23	1,2,3	1			1993-09-01		
3	-1069577	-1587719	11.95	-8.45	11:57:00N	8:27:00W	29PNP5988421084	NC29-03	L	RESF		ML	00				N				FORETCLASSEEDEKANGABA	Forêt Classée de Kangaba	Foret Classee de Kangaba	KANGABA FORETCLASSEEDE	Kangaba, Forêt Classée de	Kangaba, Foret Classee de		1993-12-18	1,2,3,4,5	1			1993-09-01		
3	6313728	6407807	17.155278	.140556	17:09:19N	0:08:26E	31QAU9577898973	NE31-09	L	LCTY		ML	09				N				TINFENDE	Ti-n-Fendé	Ti-n-Fende	TINFENDE	Ti-n-Fendé	Ti-n-Fende		2006-06-08	1,2,3,4	1			1993-09-01		
3	6400806	6720493	17.413611	-.551667	17:24:49N	0:33:06W	30QYE6009626975	NE30-12	L	LCTY		ML	09				N				AJEDESDER	Ajedesder	Ajedesder	AJEDESDER	Ajedesder	Ajedesder		2007-04-10	1,2,3,4	1			2007-04-10		
3	6400245	6719614	19.869444	2.609722	19:52:10N	2:36:35E	31QDB5914197081	NE31-02	L	LCTY		ML	10				N				TINTIGNOUTINE	Ti-n-Tignoutine	Ti-n-Tignoutine	TINTIGNOUTINE	Ti-n-Tignoutine	Ti-n-Tignoutine		2007-04-04	1,2,3,4	1			2007-04-04		
3	6312247	6405916	16.341389	-1.724722	16:20:29N	1:43:29W	30QXD3621907125	NE30-15	L	LCTY		ML	08				N				INAGAMARA	In-Ag Amara	In-Ag Amara	INAGAMARA	In-Ag Amara	In-Ag Amara		2006-05-23	1,2,3,4	1			1993-09-01		
3	6312382	6406054	16.878056	-.298611	16:52:41N	0:17:55W	30QYD8781968036	NE30-16	L	RESF		ML	09				N			Forêt classée	FORETCLASSEEDEBOUREM	Forêt classée de Bourem	Foret classee de Bourem	BOUREM FORETCLASSEEDE	Bourem, Forêt classée de	Bourem, Foret classee de		2006-05-24	1,2,3,4	1			1993-09-01		
3	6312388	6406060	16.7275	-.818056	16:43:39N	0:49:05W	30QYD3263350685	NE30-16	L	LCTY		ML	09				N				TINRAMAN	Ti-n-Raman	Ti-n-Raman	TINRAMAN	Ti-n-Raman	Ti-n-Raman		2006-05-24	1,2,3,4	1			1993-09-01		
3	6312393	6406065	16.785556	-.052222	16:47:08N	0:03:08W	30QZD1424258168	NE30-16	L	LCTY		ML	09				N				TISOUAK	Tisouak	Tisouak	TISOUAK	Tisouak	Tisouak		2006-05-24	1,2,3,4	1			1993-09-01		
3	6312398	6406070	16.666111	-.477778	16:39:58N	0:28:40W	30QYD6901744318	NE30-16	L	LCTY		ML	09				N				INFRORAN	I-n-Froran	I-n-Froran	INFRORAN	I-n-Froran	I-n-Froran		2006-05-24	1,2,3,4	1			1993-09-01		
3	6312405	6406077	16.691667	-.665	16:41:30N	0:39:54W	30QYD4900646904	NE30-16	L	LCTY		ML	09				N				TINGATAKAT	Ti-n-Gatakat	Ti-n-Gatakat	TINGATAKAT	Ti-n-Gatakat	Ti-n-Gatakat		2006-05-24	1,2,3,4	1			1993-09-01		
3	6312413	6406085	16.658056	-.012222	16:39:29N	0:00:44W	30QZD1872144112	NE30-16	L	LCTY		ML	09				N				TADAYNE	Tadayné	Tadayne	TADAYNE	Tadayné	Tadayne		2006-05-24	1,2,3,4	1			1993-09-01		
3	-1075905	-1596668	16.032222	-1.456389	16:01:56N	1:27:23W	30QXC6514473114	NE30-16	L	LCTY		ML	08				N				TINGARANE	Ti-n-Garane	Ti-n-Garane	TINGARANE	Ti-n-Garane	Ti-n-Garane		2006-05-23	1,2,3,4,5,6,7,8,9	1			1993-09-01		
3	-1075905	-1596667	16.032222	-1.456389	16:01:56N	1:27:23W	30QXC6514473114	NE30-16	L	LCTY		ML	08				V				TINGARAN	Tin Garan	Tin Garan	TINGARAN	Tin Garan	Tin Garan		2006-05-23	1,2,3,4,5,6,7,8,9				1993-09-01		
3	6312610	6406286	17.048056	2.689722	17:02:53N	2:41:23E	31QDU6698184897	NE31-10	L	LCTY		ML	09				N				INAGUERGUER	I-n-Aguerguer	I-n-Aguerguer	INAGUERGUER	I-n-Aguerguer	I-n-Aguerguer		2006-05-25	1,2,3,4	1			1993-09-01		
3	6312611	6406287	17.03	2.646389	17:01:48N	2:38:47E	31QDU6236682908	NE31-10	L	LCTY		ML	09				N				TAZAIN	Tazain	Tazain	TAZAIN	Tazain	Tazain		2006-05-25	1,2,3,4	1			1993-09-01		
3	6312285	6405954	16.797778	-1.5725	16:47:52N	1:34:21W	30QXD5212357732	NE30-15	L	LCTY		ML	08				N				KAKAS	Kakas	Kakas	KAKAS	Kakas	Kakas		2006-05-23	1,2,3,4	1			1993-09-01		
3	6312292	6405961	16.795278	-1.912222	16:47:43N	1:54:44W	30QXD1591757226	NE30-15	L	LCTY		ML	08				N				INBANDARAN	I-n-Bandaran	I-n-Bandaran	INBANDARAN	I-n-Bandaran	I-n-Bandaran		2006-05-23	1,2,3	1			1993-09-01		
3	-1073871	-1593680	17.266667	2.983333	17:16:00N	2:59:00E	31QDV9822809056	NE31-10	L	LCTY		ML	00				V				SEHINN	Sehinn	Sehinn	SEHINN	Sehinn	Sehinn		1993-12-18	1,2,3,4,5				1993-09-01		
3	-1073871	-1593679	17.266667	2.983333	17:16:00N	2:59:00E	31QDV9822809056	NE31-10	L	LCTY		ML	00				N				SEHINE	Sehine	Sehine	SEHINE	Sehine	Sehine		1993-12-18	1,2,3,4,5	1			1993-09-01		
3	-1073871	-1593041	17.266667	2.983333	17:16:00N	2:59:00E	31QDV9822809056	NE31-10	L	LCTY		ML	00				V				SAHENE	Sahene	Sahene	SAHENE	Sahene	Sahene		1993-12-18	1,2,3,4,5				1993-09-01		
3	-1073871	-1593040	17.266667	2.983333	17:16:00N	2:59:00E	31QDV9822809056	NE31-10	L	LCTY		ML	00				V				SAHEN	Sahen	Sahen	SAHEN	Sahen	Sahen		1993-12-18	1,2,3,4,5				1993-09-01		
3	-1073871	-1593678	17.266667	2.983333	17:16:00N	2:59:00E	31QDV9822809056	NE31-10	L	LCTY		ML	00				V				SEHIN	Sehin	Sehin	SEHIN	Sehin	Sehin		1993-12-18	1,2,3,4,5				1993-09-01		
3	6400765	6720452	17.773889	-.112778	17:46:26N	0:06:46W	30QZE0614267526	NE30-12	L	LCTY		ML	09				N				TAMADAK	Tamadak	Tamadak	TAMADAK	Tamadak	Tamadak		2007-04-10	1,2,3,4	1			2007-04-10		
3	6312180	6405849	16.481667	-1.193611	16:28:54N	1:11:37W	30QXD9282623078	NE30-16	L	LCTY		ML	08				N				TINOUACHIL	Ti-n-Ouachil	Ti-n-Ouachil	TINOUACHIL	Ti-n-Ouachil	Ti-n-Ouachil		2006-05-23	1,2,3	1			1993-09-01		
3	6312210	6405879	16.793889	-1.249722	16:47:38N	1:14:59W	30QXD8653257578	NE30-16	L	LCTY		ML	08				N				ITELKAN	Itèlkan	Itelkan	ITELKAN	Itèlkan	Itelkan		2006-05-23	1,2,3,4	1			1993-09-01		
3	6313603	6407682	16.863333	.298889	16:51:48N	0:17:56E	31QBU1218866405	NE31-13	L	AREA		ML	09				N				INFARKA	I-n-Farka	I-n-Farka	INFARKA	I-n-Farka	I-n-Farka		2006-06-08	1,2,3,4	1			1993-09-01		
3	-1068954	-1586725	17.570278	1.3375	17:34:13N	1:20:15E	31QCV2356243417	NE31-09	L	LCTY		ML	09				N				INFARAR	I-n-Farar	I-n-Farar	INFARAR	I-n-Farar	I-n-Farar		2006-06-01	1,2,3,4,5	1			1993-09-01		
3	-1068954	14132818	17.570278	1.3375	17:34:13N	1:20:15E	31QCV2356243417	NE31-09	L	LCTY		ML	09				V				INFARAR	In Farar	In Farar	INFARAR	In Farar	In Farar		2006-06-01	1,2,3,4,5				2013-03-04		
3	6417868	6762029	16.928889	-5.385833	16:55:44N	5:23:09W	30QTD4588773230	NE30-13	L	RGN		ML	08				N				MACHILE	Mâchilé	Machile	MACHILE	Mâchilé	Machile		2007-05-21	1,2,3,4	1			2007-05-21		
3	6417869	6762030	16.848889	-5.411389	16:50:56N	5:24:41W	30QTD4305664406	NE30-13	L	LCTY		ML	08				N				NSEIRAT	Nseïrât	Nseirat	NSEIRAT	Nseïrât	Nseirat		2007-05-21	1,2,3,4	1			2007-05-21		
3	6312334	6406003	16.643333	-1.28	16:38:36N	1:16:48W	30QXD8344840888	NE30-16	L	LCTY		ML	08				N				TASSISSEK	Tassissek	Tassissek	TASSISSEK	Tassissek	Tassissek		2006-05-23	1,2,3,4	1			1993-09-01		
3	-1064421	-1580382	16.825556	-.116944	16:49:32N	0:07:01W	30QZD0727362496	NE30-16	L	LCTY		ML	09				V				ADRARASSAKARBO	Adrar Assakarbo	Adrar Assakarbo	ADRARASSAKARBO	Adrar Assakarbo	Adrar Assakarbo		2006-05-24	1,2,3,4,5				1993-09-01		
3	-1064421	-1580406	16.825556	-.116944	16:49:32N	0:07:01W	30QZD0727362496	NE30-16	L	LCTY		ML	09				N				ASSARHARBO	Assa Rharbo	Assa Rharbo	ASSARHARBO	Assa Rharbo	Assa Rharbo		2006-05-24	1,2,3,4,5	1			1993-09-01		
3	6312317	6405986	16.170278	-1.168333	16:10:13N	1:10:06W	30QXC9583488643	NE30-16	L	LCTY		ML	08				N				TINEMIYEN	Ti-n-Emiyèn	Ti-n-Emiyen	TINEMIYEN	Ti-n-Emiyèn	Ti-n-Emiyen		2006-05-23	1,2,3	1			1993-09-01		
3	-1068719	-1586334	18.4	1.166667	18:24:00N	1:10:00E	31QCA0633435419	NE31-05	L	LCTY		ML	10				V				IGOUNHAN	Igounhan	Igounhan	IGOUNHAN	Igounhan	Igounhan		2006-06-02	1,2,3,4,5				1993-09-01		
3	-1068719	-1586294	18.4	1.166667	18:24:00N	1:10:00E	31QCA0633435419	NE31-05	L	LCTY		ML	10				N				IJOUNIANE	Ijouniane	Ijouniane	IJOUNIANE	Ijouniane	Ijouniane		2006-06-02	1,2,3,4,5	1			1993-09-01		
3	-1068719	-1586293	18.4	1.166667	18:24:00N	1:10:00E	31QCA0633435419	NE31-05	L	LCTY		ML	10				V				IJOUNHANE	Ijounhane	Ijounhane	IJOUNHANE	Ijounhane	Ijounhane		2006-06-02	1,2,3,4,5				1993-09-01		
3	-1068719	-1586292	18.4	1.166667	18:24:00N	1:10:00E	31QCA0633435419	NE31-05	L	LCTY		ML	10				V				IJOUKANE	Ijoukane	Ijoukane	IJOUKANE	Ijoukane	Ijoukane		2006-06-02	1,2,3,4,5				1993-09-01		
3	-1068719	-1586290	18.4	1.166667	18:24:00N	1:10:00E	31QCA0633435419	NE31-05	L	LCTY		ML	10				V				IJOUHANE	Ijouhane	Ijouhane	IJOUHANE	Ijouhane	Ijouhane		2006-06-02	1,2,3,4,5				1993-09-01		
3	-1068719	-1586297	18.4	1.166667	18:24:00N	1:10:00E	31QCA0633435419	NE31-05	L	LCTY		ML	10				V				IJOUNYAN	Ijounyan	Ijounyan	IJOUNYAN	Ijounyan	Ijounyan		2006-06-02	1,2,3,4,5				1993-09-01		
3	-1075433	-1595892	18.25	2.583333	18:15:00N	2:35:00E	31QDA5595317895	NE31-06	L	LCTY		ML	00				V				TESSATANTEKLATIN	Tessa-Tan-Téklatin	Tessa-Tan-Teklatin	TESSATANTEKLATIN	Tessa-Tan-Téklatin	Tessa-Tan-Teklatin		1993-12-18	1,2,3,4,5				1993-09-01		
3	-1075433	-1595894	18.25	2.583333	18:15:00N	2:35:00E	31QDA5595317895	NE31-06	L	LCTY		ML	00				N				TESSATANTEKLATINE	Téssa ta-n-Téklatine	Tessa ta-n-Teklatine	TESSATANTEKLATINE	Téssa ta-n-Téklatine	Tessa ta-n-Teklatine		1993-12-18	1,2,3,4,5	1			1993-09-01		
1	10005663	10069566	15.485427	-7.564235	15:29:08N	7:33:51W	29PPT5401612533	ND29-03	L	AREA		ML	07				V				RHEUTAGLAL	Rheut Aglal	Rheut Aglal	RHEUTAGLAL	Rheut Aglal	Rheut Aglal		2007-06-25	1,2,3,4				2007-06-25		
1	10005663	10069565	15.485427	-7.564235	15:29:08N	7:33:51W	29PPT5401612533	ND29-03	L	AREA		ML	07				N				GHEUTAGLAL	Gheut Aglal	Gheut Aglal	GHEUTAGLAL	Gheut Aglal	Gheut Aglal		2007-06-25	1,2,3,4	1			2007-06-25		
3	6340708	6558769	23.3482	-3.2555	23:20:54N	3:15:20W	30QVL7388482089	NF30-02	L	AREA		ML	08				N				HOFRAELGUEDOUR	Hofra el Guédour	Hofra el Guedour	HOFRAELGUEDOUR	Hofra el Guédour	Hofra el Guedour		2008-01-15	1,2,3,4	1			1993-09-01		
3	6340710	6558771	23.1232	-3.8307	23:07:24N	3:49:51W	30QVL1494457400	NF30-02	L	AREA		ML	08				N				SAFIA	Safia	Safia	SAFIA	Safia	Safia		2008-01-15	1,2,3,4	1			1993-09-01		
3	10027043	10147561	15.271001	-11.297809	15:16:16N	11:17:52W	29PKS5322589604	ND29-01	L	LCTY		ML	03				N				DABA	Daba	Daba	DABA	Daba	Daba		2007-09-24	1,2,3,4	1			2007-09-24		
3	-1067520	-1584608	14.475625	-12.097392	14:28:32N	12:05:51W	28PHB1291702312	ND28-08	L	RESF		ML	03				N			Forêt Classée	FORETCLASSEEDELAFALEME	Forêt Classée de la Falémé	Foret Classee de la Faleme	FALEME FORETCLASSEEDELA	Falémé, Forêt Classée de la	Faleme, Foret Classee de la		2007-09-17	1,2,3,4,5	1			1993-09-01		
1	10032300	10165298	15.331534	-10.555081	15:19:54N	10:33:18W	29PLS3306095595	ND29-01	L	LCTY		ML	03				N				DOUHARAGOUNE	Douharagouné	Douharagoune	DOUHARAGOUNE	Douharagouné	Douharagoune		2007-09-27	1,2,3,4	1			2007-09-27		
3	-1072574	-1591790	15.179989	-10.823009	15:10:48N	10:49:23W	29PLS0414979050	ND29-01	L	LCTY		ML	03				N				NIARANIARA	Niara Niara	Niara Niara	NIARANIARA	Niara Niara	Niara Niara		2007-10-02	1,2,3,4,5	1			1993-09-01		
1	10040682	10202878	12.389863	-11.248603	12:23:24N	11:14:55W	29PKP5551970694	ND29-13	L	LCTY		ML	03				N				MAMBA	Mamba	Mamba	MAMBA	Mamba	Mamba		2007-10-11	1,2,3,4	1			2007-10-11		
3	-1069234	-1587238	16.66008	-5.62708	16:39:36N	5:37:37W	30QTD1978343795	NE30-13	L	RGN		ML	00				V				IRRIGUI	Irrigui	Irrigui	IRRIGUI	Irrigui	Irrigui		2007-10-02	1,2,3,4,5				2007-05-21		
3	-1069234	6762035	16.66008	-5.62708	16:39:36N	5:37:37W	30QTD1978343795	NE30-13	L	RGN		ML	00				V				IGUI	Îgui	Igui	IGUI	Îgui	Igui		2007-10-02	1,2,3,4,5				2007-10-02		
1	10040825	10203101	12.882207	-11.374541	12:52:56N	11:22:28W	29PKQ4231425300	ND29-13	L	LCTY		ML	03				N				FINAKOUNDA	Finakounda	Finakounda	FINAKOUNDA	Finakounda	Finakounda		2007-10-12	1,2,3,4	1			2007-10-12		
1	10040809	10203081	12.917774	-11.374947	12:55:04N	11:22:30W	29PKQ4230629237	ND29-13	L	LCTY		ML	03				N				MANINAMINE	Manina-Mine	Manina-Mine	MANINAMINE	Manina-Mine	Manina-Mine		2007-10-12	1,2,3,4	1			2007-10-12		
3	-1064570	-1580634	13.976165	-11.144376	13:58:34N	11:08:40W	29PKR6835546138	ND29-09	L	RESF		ML	03				N			Forêt Classée	FORETCLASSEEDEBAGOUKO	Forêt Classée de Bagouko	Foret Classee de Bagouko	BAGOUKO FORETCLASSEEDE	Bagouko, Forêt Classée de	Bagouko, Foret Classee de		2007-10-25	1,2,3,4,5	1			1993-09-01		
1	-475997	10274885	24.8065	-5.7948	24:48:23N	5:47:41W	30RTN1746446415	NG30-13	L	RGN		ML	00				V				NDENNAH	Ndennah	Ndennah	NDENNAH	Ndennah	Ndennah		2007-12-12	1,2,3,4				2007-12-12		
1	-475997	-681816	24.8065	-5.7948	24:48:23N	5:47:41W	30RTN1746446415	NG30-13	L	RGN		ML	00			MR	N				MDENNAH	Mdennah	Mdennah	MDENNAH	Mdennah	Mdennah		2007-12-12	1,2,3,4				2007-12-12		
1	-475997	-681815	24.8065	-5.7948	24:48:23N	5:47:41W	30RTN1746446415	NG30-13	L	RGN		ML	00			AG	N				MDENNAH	Mdennah	Mdennah	MDENNAH	Mdennah	Mdennah		2007-12-12	1,2,3,4				2007-12-12		
3	-1071307	-1590650	15.360946	-8.635816	15:21:39N	8:38:09W	29PNS3908698282	ND29-03	L	LCTY		ML	07				V				MEDIANA	Médiana	Mediana	MEDIANA	Médiana	Mediana		2007-12-18	1,2,3,4,5				2007-05-21		
3	-1071307	-1590651	15.360946	-8.635816	15:21:39N	8:38:09W	29PNS3908698282	ND29-03	L	LCTY		ML	07				V				MEDINA	Médina	Medina	MEDINA	Médina	Medina		2007-12-18	1,2,3,4,5				2007-05-21		
1	-1071307	-1590038	15.360946	-8.635816	15:21:39N	8:38:09W	29PNS3908698282	ND29-03	L	LCTY		ML	07				N				MADINA	Madina	Madina	MADINA	Madina	Madina		2007-12-18	1,2,3,4,5	1			2007-12-18		
3	-1073513	-1593185	15.453512	-8.170158	15:27:13N	8:10:13W	29PNT8902608659	ND29-03	L	LCTY		ML	07				V				SAMBAKOULE	Samba Koulé	Samba Koule	SAMBAKOULE	Samba Koulé	Samba Koule		2007-12-18	1,2,3,4,5				1993-09-01		
1	-1073513	-1593184	15.453512	-8.170158	15:27:13N	8:10:13W	29PNT8902608659	ND29-03	L	LCTY		ML	07				V				SAMBAKOLE	Samba Kolé	Samba Kole	SAMBAKOLE	Samba Kolé	Samba Kole		2007-12-18	1,2,3,4,5				2007-06-19		
1	-1073513	-1593303	15.453512	-8.170158	15:27:13N	8:10:13W	29PNT8902608659	ND29-03	L	LCTY		ML	07				N				SANBAKOLE	Sanbakolé	Sanbakole	SANBAKOLE	Sanbakolé	Sanbakole		2007-12-18	1,2,3,4,5	1			2007-12-18		
3	6418059	6765500	15.431917	-8.828022	15:25:55N	8:49:41W	29PNT1845106106	ND29-03	L	LCTY		ML	07				N				LANBOUTYOU	Lanboutyou	Lanboutyou	LANBOUTYOU	Lanboutyou	Lanboutyou		2007-12-18	1,2,3,4	1			2007-05-21		
1	-1066586	-1583321	15.5065	-4.4618	15:30:23N	4:27:42W	30PUC4320714883	ND30-02	L	RESF		ML	04				N			Forêt Classée	FORETCLASSEEDEDIONDO	Forêt Classée de Diondo	Foret Classee de Diondo	DIONDO FORETCLASSEEDE	Diondo, Forêt Classée de	Diondo, Foret Classee de		2008-01-03	1,2,3,4,5	1			2008-01-03		
1	10079522	10281631	15.7661	-4.8955	15:45:58N	4:53:44W	30PTC9693143976	ND30-01	L	LCTY		ML	08				N				EREBOUGOU	Ere-Bougou	Ere-Bougou	EREBOUGOU	Ere-Bougou	Ere-Bougou		2008-01-03	1,2,3,4	1			2008-01-03		
3	-1076755	-1597895	15.6087	-4.6737	15:36:31N	4:40:25W	30PUC2056226358	ND30-01	L	LCTY		ML	08				N				WONALAROU	Wonalarou	Wonalarou	WONALAROU	Wonalarou	Wonalarou		2008-01-03	1,2,3,4,5	1			1993-09-01		
1	10079849	10282033	15.3876	-5.0745	15:23:15N	5:04:28W	30PTC7734002267	ND30-01	L	LCTY		ML	04				N				POUNEGUI	Pounégui	Pounegui	POUNEGUI	Pounégui	Pounegui		2008-01-04	1,2,3,4	1			2008-01-04		
3	-1067334	-1584340	22.8242	-2.8277	22:49:27N	2:49:40W	30QWL1768024069	NF30-07	L	RGN		ML	08				N				ELMAHIA	El Mahia	El Mahia	ELMAHIA	El Mahia	El Mahia		2008-01-04	1,2,3,4,5,6,7,8,9	1			1993-09-01		
1	10079662	10281771	15.0628	-4.2584	15:03:46N	4:15:30W	30PUB6474365658	ND30-02	L	LCTY		ML	04				N				FEROUDIALOUBE	Férou Dialoubé	Ferou Dialoube	FEROUDIALOUBE	Férou Dialoubé	Ferou Dialoube		2008-01-03	1,2,3,4	1			2008-01-03		
1	10079667	10281776	15.9393	-4.0269	15:56:21N	4:01:37W	30PUC9009262492	ND30-02	L	LCTY		ML	08				N				SERE	Séré	Sere	SERE	Séré	Sere		2008-01-03	1,2,3,4	1			2008-01-03		
1	-1068257	-1585608	15.8898	-4.1029	15:53:23N	4:06:10W	30PUC8192857057	ND30-02	L	RESF		ML	08				N			Forêt Classée	FORETCLASSEEDEGONBATOU	Forêt Classée de Gonbatou	Foret Classee de Gonbatou	GONBATOU FORETCLASSEEDE	Gonbatou, Forêt Classée de	Gonbatou, Foret Classee de		2008-01-03	1,2,3,4,5	1			2008-01-03		
1	10079848	10282032	15.4601	-5.0969	15:27:36N	5:05:49W	30PTC7501310314	ND30-01	L	LCTY		ML	04				N				KOUDANA	Koudana	Koudana	KOUDANA	Koudana	Koudana		2008-01-04	1,2,3,4	1			2008-01-04		
1	10079577	10281686	15.0284	-4.5835	15:01:42N	4:35:01W	30PUB2976662077	ND30-01	L	LCTY		ML	04				N				BOTCHOTCHE	Botchotché	Botchotche	BOTCHOTCHE	Botchotché	Botchotche		2008-01-03	1,2,3,4	1			2008-01-03		
1	10079628	10281737	15.8694	-4.3413	15:52:10N	4:20:29W	30PUC5638854949	ND30-02	L	LCTY		ML	08				N				TINNBOAGAL	Tinnboagal	Tinnboagal	TINNBOAGAL	Tinnboagal	Tinnboagal		2008-01-03	1,2,3,4	1			2008-01-03		
1	10079632	10281741	15.8292	-4.2028	15:49:45N	4:12:10W	30PUC7119450411	ND30-02	L	LCTY		ML	08				N				TATABOS	Tatabos	Tatabos	TATABOS	Tatabos	Tatabos		2008-01-03	1,2,3,4	1			2008-01-03		
1	10079633	10281742	15.8188	-4.1831	15:49:08N	4:10:59W	30PUC7329749249	ND30-02	L	LCTY		ML	08				N				TEREM	Térem	Terem	TEREM	Térem	Terem		2008-01-03	1,2,3,4	1			2008-01-03		
1	-1073062	-1592547	15.6067	-4.5122	15:36:24N	4:30:44W	30PUC3787826007	ND30-01	L	RESF		ML	08				N			Forêt Classée	FORETCLASSEEDEOUMERE	Forêt Classée de Ouméré	Foret Classee de Oumere	OUMERE FORETCLASSEEDE	Ouméré, Forêt Classée de	Oumere, Foret Classee de		2008-01-03	1,2,3,4,5	1			2008-01-03		
1	10078966	10280906	23.6597	-5.7389	23:39:35N	5:44:20W	30QTM2062319233	NF30-01	L	AREA		ML	08				N				ZARHMA	Zarhma	Zarhma	ZARHMA	Zarhma	Zarhma		2008-01-02	1,2,3,4	1			2008-01-02		
1	-1065221	-1581507	15.5927	-4.329	15:35:34N	4:19:44W	30PUC5751324327	ND30-02	L	RESF		ML	04				N			Forêt Classée	FORETCLASSEEDEBIA	Forêt Classée de Bia	Foret Classee de Bia	BIA FORETCLASSEEDE	Bia, Forêt Classée de	Bia, Foret Classee de		2008-01-03	1,2,3,4,5	1			2008-01-03		
1	6418049	6765490	15.013221	-8.611634	15:00:48N	8:36:42W	29PNS4175059825	ND29-03	L	LCTY		ML	07				N				MAHATALA	Mahatala	Mahatala	MAHATALA	Mahatala	Mahatala		2008-01-08	1,2,3,4	1			2008-01-08		
1	6418047	6765488	15.088888	-8.705039	15:05:20N	8:42:18W	29PNS3169768179	ND29-03	L	LCTY		ML	07				N				MASALAGEDE	Masalagédé	Masalagede	MASALAGEDE	Masalagédé	Masalagede		2008-01-08	1,2,3,4	1			2008-01-08		
1	10079613	10281722	15.1548	-4.4211	15:09:17N	4:25:16W	30PUB4731875943	ND30-02	L	LCTY		ML	04				N				SABOUNIAKA	Sabouniaka	Sabouniaka	SABOUNIAKA	Sabouniaka	Sabouniaka		2008-01-03	1,2,3,4	1			2008-01-03		
1	10079614	10281723	15.1119	-4.4072	15:06:43N	4:24:26W	30PUB4878171187	ND30-02	L	LCTY		ML	04				N				TAMA	Tama	Tama	TAMA	Tama	Tama		2008-01-03	1,2,3,4	1			2008-01-03		
1	10079615	10281724	15.0813	-4.4628	15:04:53N	4:27:46W	30PUB4278367840	ND30-02	L	LCTY		ML	04				N				KETOUMBO	Kétoumbo	Ketoumbo	KETOUMBO	Kétoumbo	Ketoumbo		2008-01-03	1,2,3,4	1			2008-01-03		
1	10079617	10281726	15.137	-4.332	15:08:13N	4:19:55W	30PUB5688073913	ND30-02	L	LCTY		ML	04				N				DIOUGUELI	Diouguéli	Diougueli	DIOUGUELI	Diouguéli	Diougueli		2008-01-03	1,2,3,4	1			2008-01-03		
1	10079618	10281727	15.0676	-4.3321	15:04:03N	4:19:56W	30PUB5682366236	ND30-02	L	LCTY		ML	04				N				DAKA	Daka	Daka	DAKA	Daka	Daka		2008-01-03	1,2,3,4	1			2008-01-03		
1	10079619	10281728	15.0507	-4.3597	15:03:03N	4:21:35W	30PUB5384564384	ND30-02	L	LCTY		ML	04				N				BOA	Boa	Boa	BOA	Boa	Boa		2008-01-03	1,2,3,4	1			2008-01-03		
3	-1074726	-1594821	15.3933	-4.7905	15:23:36N	4:47:26W	30PUC0783702625	ND30-01	L	LCTY		ML	04				N				SOURANGO	Sourango	Sourango	SOURANGO	Sourango	Sourango		2008-01-03	1,2,3,4,5	1			1993-09-01		
1	-1070692	-1589224	15.7213	-4.3693	15:43:17N	4:22:09W	30PUC5328338583	ND30-02	L	LCTY		ML	08				V				KOSSOMBO	Kossombo	Kossombo	KOSSOMBO	Kossombo	Kossombo		2008-01-03	1,2,3,4,5				2008-01-03		
1	-1070692	-1589226	15.7213	-4.3693	15:43:17N	4:22:09W	30PUC5328338583	ND30-02	L	LCTY		ML	08				N				KOSSONBO	Kossonbo	Kossonbo	KOSSONBO	Kossonbo	Kossonbo		2008-01-03	1,2,3,4,5	1			2008-01-03		
1	-1067103	-1584021	15.6994	-4.3208	15:41:58N	4:19:15W	30PUC5846536127	ND30-02	L	RESF		ML	04				N			Forêt Classée	FORETCLASSEEDEDOUYE	Forêt Classée de Douye	Foret Classee de Douye	DOUYE FORETCLASSEEDE	Douye, Forêt Classée de	Douye, Foret Classee de		2008-01-03	1,2,3,4,5	1			2008-01-03		
1	6418045	6765486	15.050085	-8.769892	15:03:00N	8:46:12W	29PNS2473363879	ND29-03	L	LCTY		ML	07				N				SORDONIDALA	Sordoni Dala	Sordoni Dala	SORDONIDALA	Sordoni Dala	Sordoni Dala		2008-01-08	1,2,3,4	1			2008-01-08		
3	-1066015	-1582549	15.5244	-4.7844	15:31:28N	4:47:04W	30PUC0861217126	ND30-01	L	LCTY		ML	04				N				DARNIEN	Darnien	Darnien	DARNIEN	Darnien	Darnien		2008-01-03	1,2,3,4,5	1			1993-09-01		
1	-1073816	-1593595	15.7265	-4.2075	15:43:35N	4:12:27W	30PUC7062539052	ND30-02	L	RESF		ML	08				N			Forêt Classée	FORETCLASSEEDESEBI	Forêt Classée de Sébi	Foret Classee de Sebi	SEBI FORETCLASSEEDE	Sébi, Forêt Classée de	Sebi, Foret Classee de		2008-01-03	1,2,3,4,5	1			2008-01-03		
1	-1076892	-1598057	15.4162	-4.2755	15:24:58N	4:16:32W	30PUC6313304765	ND30-02	L	RESF		ML	04				N			Forêt Classée	FORETCLASSEEDEYOUVAROU	Forêt Classée de Youvarou	Foret Classee de Youvarou	YOUVAROU FORETCLASSEEDE	Youvarou, Forêt Classée de	Youvarou, Foret Classee de		2008-01-03	1,2,3,4,5	1			2008-01-03		
1	10079521	10281630	15.9515	-4.6913	15:57:05N	4:41:29W	30PUC1897964305	ND30-01	L	LCTY		ML	08				N				GARMA	Garma	Garma	GARMA	Garma	Garma		2008-01-03	1,2,3,4	1			2008-01-03		
1	-1072486	-1591657	15.9332	-4.0121	15:56:00N	4:00:44W	30PUC9167361809	ND30-02	L	RESF		ML	08				N			Forêt Classée	FORETCLASSEEDENIAFOUNKEOUEST	Forêt Classée de Niafounké-Ouest	Foret Classee de Niafounke-Ouest	NIAFOUNKEOUEST FORETCLASSEEDE	Niafounké-Ouest, Forêt Classée de	Niafounke-Ouest, Foret Classee de		2008-01-03	1,2,3,4,5	1			2008-01-03		
1	-1067368	-1584393	15.4817	-4.2425	15:28:54N	4:14:33W	30PUC6671711991	ND30-02	L	RESF		ML	04				N			Forêt Classée	FORETCLASSEEDENGHEM	Forêt Classée d' Enghem	Foret Classee d' Enghem	ENGHEM FORETCLASSEED	Enghem, Forêt Classée d'	Enghem, Foret Classee d'		2008-01-03	1,2,3,4,5	1			2008-01-03		
1	10079829	10282013	15.5172	-5.1648	15:31:02N	5:09:53W	30PTC6778916706	ND30-01	L	LCTY		ML	04				N				BARAOU	Baraou	Baraou	BARAOU	Baraou	Baraou		2008-01-04	1,2,3,4	1			2008-01-04		
1	-1070598	-1589091	15.3835	-5.1591	15:23:01N	5:09:33W	30PTC6825201902	ND30-01	L	LCTY		ML	04				V				KORABDALAYE	Kor Abdalaye	Kor Abdalaye	KORABDALAYE	Kor Abdalaye	Kor Abdalaye		2008-01-04	1,2,3,4,5				2008-01-04		
1	-1070598	-1589093	15.3835	-5.1591	15:23:01N	5:09:33W	30PTC6825201902	ND30-01	L	LCTY		ML	04				N				KORADDALAYE	Kor Addalaye	Kor Addalaye	KORADDALAYE	Kor Addalaye	Kor Addalaye		2008-01-04	1,2,3,4,5	1			2008-01-04		
3	-1072917	-1592291	15.5489	-4.8476	15:32:56N	4:50:51W	30PUC0185519895	ND30-01	L	LCTY		ML	04				N				ORENYIWOU	Orenyiwou	Orenyiwou	ORENYIWOU	Orenyiwou	Orenyiwou		2008-01-03	1,2,3,4,5	1			1993-09-01		
1	-1068096	-1585362	15.7712	-4.3988	15:46:16N	4:23:56W	30PUC5015844124	ND30-02	L	RESF		ML	08				V				FORETCLASSEEDEGAMBA	Forêt Classée de Gamba	Foret Classee de Gamba	GAMBA FORETCLASSEEDE	Gamba, Forêt Classée de	Gamba, Foret Classee de		2008-01-03	1,2,3,4,5				2008-01-03		
1	-1068096	-1585376	15.7712	-4.3988	15:46:16N	4:23:56W	30PUC5015844124	ND30-02	L	RESF		ML	08				N			Forêt Classée	FORETCLASSEEDEGANBA	Forêt Classée de Ganba	Foret Classee de Ganba	GANBA FORETCLASSEEDE	Ganba, Forêt Classée de	Ganba, Foret Classee de		2008-01-03	1,2,3,4,5	1			2008-01-03		
