,Date,County,Event,Location,Lat,Long,Deaths,Injured,Missing,Houses.Destroyed,Evacuated,Houses.Damaged,Directly.affected,Indirectly.Affected,Relocated,Losses..Local,Education.centers,Damages.in.crops.Ha.,Lost.Cattle,Lost.Goats,Lost.Livestock,source,Comments
0,05-04-17,Nyeri,Floods,Mahigaini Village,-0.437099,36.9580104,0,0,0,0,0,7,0,0,0,0,0,0,0,0,0,EoC,"At 1400hrs, Gitonga (Krcs Rm) Reported Of Effects That Were As A Result Of Heavy Downpour. Landslide Was Reported In Mahigaini Village, Mathare East: 7 Households Were Affected.  Following The Continuous Rainfall In Mathare 12 Latrines Sunk. Fortunately No Injuries Or Fatalities Were Reported."
1,05-09-17,Kwale,Floods,Ukunda,-4.2879181,39.565308,0,0,0,0,0,0,0,0,0,0,0,0,0,0,0,EoC,"E.o.c Received Report Of Flood At Ukunda In Kwale County After Heavy Downpour Via Krcs Rcat At 0900hrs, River Mwache Was Reported To Be Having An Overflow At Mwache Bridge Paralyzing Transport And Also Lunga Lunga-Kinango-Mariakani Road, Ukunda-Kwale Road And Mrima-Mwabungo Road Were Cut Off Rendering The Road Impassable. Krcs Team Conducting Assessment In The Area."
2,11-12-17,Makueni,Floods,Sultan Hamud,-2.0168394,37.3693679,0,0,0,0,0,,0,0,0,0,0,0,0,0,0,EoC,"Krcs Joe Mbalu Makueni County Coordinator At 0817hrs Reported Floods At Sultan Hamud Town In Makueni County, Approximately 10hh Were Displaced And Road Cut Off At Sultan Hamud Bridge Caused By Overflow Of River Sultan Hamud Along Mombasa Road. Assessment Was Conducted By Kibwezi Rcat Team, Motorists Were Advised To Use Wote Makueni Makindu Road As An Alternative Route."
3,5/15/2018,Siaya,Floods,Siaya,0.0626293,34.2878084,0,0,0,0,0,0,0,0,0,0,0,0,0,0,0,EoC,"E.o.c Via Social Media At 2241hrs Captured Reports Of Flash Floods Incidents, River Yala Reported To Have Burst Its Banks Flooding To A Nearby School In Dominion Farm, Residents Of The Affected Area Are Being Urged To Move To Higher Grounds"
4,4/21/2016,Baringo,Floods,Marigat,0.4694721,35.9832743,0,0,0,0,0,30,0,0,0,0,0,0,0,0,0,EoC,At 0730hrs Lagat (Regional Manager) Reported Of Floods Incident At Kabikoki And Ndau Villages In Marigat. Due To The Continuous Increase Of Rainfall In Highland Areas The Water Level In River Perkerra And Endao Increased And Later Burst Its Banks. Approximately 30 Households Were Affected. Residents Have Been Advised To Move To Higher Grounds. (Brief; 30hhs)
5,3/18/2018,Nakuru,Floods,Naivasha,-0.7171778,36.4310251,0,0,0,0,0,0,0,0,0,0,0,0,0,0,0,EoC,"Heavy Rainfall Was Reported In Naivasha And Flash Floods Reported In Areas Like, Kayole, Naivasha Town, Mai Mahiu, Kinamba And Maraiguchu. Krcs Team Are On Standby And Will Update E.o.c In Case Of Any Response."
6,11/26/2018,Tana River,Floods,Bura Tana River,-1.1,39.95,0,0,0,52,0,0,0,0,0,0,0,0,0,0,0,EoC,"At 1807hrs, Bombe (Krcs) Reported To E.o.c Of Flash Floods At Bura In Tana River County.    Following Heavy Downpour Flash Floods Occurred And Has Affected At Least 52 Households. Some Of The Residents Who Were Affected By The Floods Have Integrated With Other Relatives And Friends. Other Villagers Affected Were The Manyatta, Bulasukela And Bula Lami.  Rcat Team To Conduct An Assessment To Establish The Extent Of The Damage."
7,3/17/2018,Busia,Floods,River Malakisi Teso North Busia,0.7076876,34.4309165,0,0,0,0,0,0,0,0,0,0,0,0,0,0,0,EoC,"E.o.c Via Media At 1954hrs Reported A Flash Floods In River Malakisi In Teso North That Has Overflowed Following Heavy Rains, Preliminary Reports Indicates Possible Displacements Of Some Households And Some Livestocks Swept Away. Assessment To Be Conducted To Determine The Level Of Damage."
8,05-09-17,Kwale,Floods,Bondeni Kwale,-4.1816115,39.4605612,0,0,0,0,0,0,0,0,0,0,0,0,0,0,0,EoC,"E.o.c Received Report Of Flood At Bondeni In Kwale County After Heavy Downpour Via (Kiwebu 0721923913) At 1158hrs, Several Hh Marooned By Flood Water. Krcs Team Conducting Assessment In The Area."
9,10/16/2017,Homa Bay,Floods,"Mbita,Homabay",-0.4367915,34.2060283,0,0,0,0,0,,0,0,0,0,0,0,0,0,0,EoC,"At Around 1035hrs, Maurice Krcs Homabay Notified Eoc Of Floods At Kasgunga Central Area In Mbita Sub County Owing To Heavy Down Pour Witnessed The Previous Night. Rapid Assessment Conducted By Krcs Homa Bay Team Ascertained That 10hh Had Been Submerged Affecting Normal Operations In The Area. No Casualties Reported"
10,4/30/2018,Kirinyaga,Floods,Thiguku Kirinyaga,-0.6590565,37.3827234,0,0,0,0,0,47,0,0,0,0,0,0,0,0,0,EoC,"Gitonga (Rm Central) Reported Flash Floods At Thiguku Village In Kirinyaga County After Heavy Downpour Experienced At Kirinyaga East, Thiguku Village Was Most Affected With 47hh Displaced From Their Homes And They Were Relocated To Safer Ground."
11,3/21/2018,Bungoma,Floods,"Tongareni Area, Bungoma",0.5695252,34.5583766,0,0,0,0,0,10,0,0,0,0,0,0,0,0,0,EoC,"Godfrey (0712274509) Reported At 1943hrs Of An Incident That Was As Result Of Heavy Downpour. Heavy Rainfall That Was Accompanied By Strong Winds Blew Off Roofs Of Houses In Tongareni Area, Bungoma County. Approximately 10hhs Have Been Affected And Property Of Unknown Value Was Also Destroyed. Krcs Bungoma To Conduct Assessment."
12,4/23/2018,Nyandarua,Floods,Kinangop Nyandarua,-0.719112,36.650181,7,0,0,0,2,0,0,0,0,0,0,0,0,0,0,EoC,"At Around 1305hrs, Mainstream Media Reported A Drowning Incident At Githabai Village In Kinangop Nyandarua County. A Personal Car With 9 People On Board Was Swept Away While Attempting To Cross A Githabai Seasonal River. Two Men On Board Swam To Safety With The 7 Others Recovered Dead."
13,05-03-17,Marsabit,Floods,Laisamis And North Horr,1.5962079,37.8061146,0,0,0,0,0,250,0,0,0,0,0,0,0,0,0,EoC,Talaso (Krcs Rm) Reported  Heavy Amounts Of Rainfall In Marasbit County. Significant Amounts Were Reported In Laisamis And North Horr Sub Counties At 1025hrs. Massive Livestock Deaths Were Also Reported. A Farmer Reported A Loss Of 250 Shoats. Krcs Teams Remain On Standby. (Brief; 250 Shoats)
14,05-09-16,Nairobi,Floods,Kibera Nairobi,-1.3114845,36.7879475,0,0,0,0,0,3,0,0,0,0,0,0,0,0,0,EoC,"Floods Incident Was Reported On Saturday Night In Kibera Otiende Area, Klb Branch Conducted An Assessment Yesterday And Found That Approximately Three Households Were Affected."
15,12-01-15,Isiolo,Floods,Isiolo,0.355636,37.5833061,0,0,0,0,0,,0,0,0,0,0,0,0,0,0,EoC,At 1130hrs Gitonga (Krcs County Manager) Reported A Case Of Floods In Isiolo County. Heavy Rains Received In Modagashe Area Lead To Flash Floods Submerging Of Approximately 58 Houses. No Reports Of Damages Or Injuries Were Reported. Garbaturra-Modagashe Road Was Rendered Impassable.
16,12-06-15,Kwale,Floods,Nasewa And Lunga Busia,-4.5534909,39.1283506,0,0,0,0,0,68,0,0,0,0,0,0,0,0,0,EoC,At 1400hrs Kemboi (County Manager) Reported Flooding Incident In Busia County. Above Average Rainfall Was Received In Nasewa And Lunga Sub-Locations. 68 Households In Nasewa And Lunga Sub-Location Along River Sio Affected By Flooding. Planning For Response Will Be Done Tomorrow. Assessment In The Neighboring Villages Of Kadeki. (Brief: 68hhs)
17,12/16/2015,Laikipia,Floods,Laikipia,0.3606063,36.7819505,0,0,0,0,0,0,0,0,0,0,0,0,0,0,0,EoC,"At 0906hrs, Anthony (Krcs Laikipia) Reported Of A Floods Incident In Laikipia County. Heavy Rainfall Was Received In Most Parts Of The County In The Last 24 Hours. In Lamuria Sub-County Flash Floods Were Reported And Led To Displacement In Ngarinyiro And Mwiyogo A Total Of 64 Households Were Affected. Distribution Of Non Food Items Are Currently Being Distributed In Lamuria Targeting To Reach 64 Households. (Brief; 64hhs)"
18,05-01-17,Narok,Floods,Suswa Narok,-1.1761411,36.3488674,0,0,0,0,0,,0,0,0,0,0,0,0,0,0,EoC,"E.o.c Via Social Media Received A Report Of Flash Floods Along Mai Mahiu Road Near Suswa Trading Centre At 1400hrs, The Road Was Rendered Impassable And Several Passengers Have Been Stranded For Several Hours And Heavy Traffic Reported Along The Busy Highway."
19,4/24/2018,Meru,Floods,Ngaremara,0.5049354,37.649315,0,0,0,0,0,,0,0,0,0,0,0,0,0,0,EoC,"Gitonga (Krcs Rm) Notified The Eoc Of Flash Floods At Ngaremara Area In Meru County At 1703hrs. Approximately 48hhs Have Been Displaced, Krcs Meru Will Conduct An Assessment To Determine The Extent Of Damage."
20,05-08-17,Kwale,Floods,Mbadi Bridge Kinango,-4.1393386,39.3180297,0,0,0,0,0,,0,0,0,0,0,0,0,0,0,EoC,"E.o.c Received Report From (Reuben 0724341356) Of Flood Along Kinango Kwale Road After River Mwache Water Surge Up Cutting Off Transport At Mbadi Bridge In Kinango Sub County Samburu Division Kasomeli Ward As At 1300hrs, Kwale Team Responding To The Scene And Will Update E.o.c."
21,05-07-18,Kisumu,Floods,Ayeyo Village Kisumu,-0.0917016,34.7679568,0,0,0,0,0,0,0,0,0,0,0,0,0,0,0,EoC,"Juma (0728779033) Reported Of A Flood Incident At Kimira Village Ayeyo Sub County In Kisumu County At 2119hrs. Settlements And Properties Of Unknown Values Have Been Destroyed By Flood, Krcs Kisumu Will Conduct Assessments In The Area Affected And Give Detail Report."
22,3/16/2018,Turkana,Floods,Turkana,3.3122477,35.5657862,0,0,0,0,0,0,0,0,0,0,0,0,0,0,0,EoC,E.o.c At 2155hrs Via Social Media Captured Reports Of Flash Floods In Turkana County. Heavy Rains Witnessed In The County Resulted Into Flashfloods In Turkana South Motorists Remained Stranded After The Kitale- Eldoret Was Cut Off Following The Bursting Of Seasonal River Kilemorok.
23,3/27/2018,Narok,Floods,Ngasiat River Narok,-1.0875428,35.8770642,1,0,0,0,0,0,0,0,0,0,0,0,0,0,0,EoC,Edwin (0713275887) Reported To E.o.c At 1952hrs Of Flash Flood That Occurred At Ngasiat River Killing One Female. The Body Of The Deceased Has Not Yet Been Found. The Search For The Body Continues Today.
24,04-11-16,Bungoma,Floods,Bungoma,0.5695252,34.5583766,0,0,0,0,0,50,0,0,0,0,0,0,0,0,0,EoC,"At 1232hrs Wekola (Krcs Bungoma) Reported Of Cases That Were As A Result Of Heavy Rainfall Last Evening.  Most Parts Of The County Received Rainfall Above Average, In Sirisia Sub-County Approximately 50hhs Were Affected These Include Schools And Residential Houses. Assessment Was Carried Out Today Later Which A Detailed Report Will Be Shared. (Brief; 50hhs)"
25,4/18/2017,Taita Taveta,Floods,"Manyani, Mombasa Road",-3.0945425,38.493259,0,0,0,0,0,,0,0,0,0,0,0,0,0,0,EoC,At 2324hrs Nick Krcs Reported Of A Bus Passenger That Was Washed Away By Heavy Rains At Manyani Area Along The Nairobi Mombasa Highway. Several People Were Still Feared To Be Trapped In Water.
26,4/29/2018,Wajir,Floods,Wajir,1.7488388,40.058633,2,0,0,0,0,0,0,0,0,0,0,0,0,0,0,EoC,"Search And Rescue Operation Is Still Ongoing In Wajir County, Most Areas Remain Impassable Two Bodies Were Retrieved At Matho Area Following A Drowning Incident While Attempting To Cross An Overtopped River.  Several Households Are Reportedly Affected, Assessment Is Ongoing."
27,5/27/2018,Garissa,Floods,Garissa,-0.4532293,39.6460988,0,0,0,0,0,,0,0,0,0,0,0,0,0,0,EoC,Otula Krcs North Eastern Reported Floods At Winsor And Madogo Areas Of Garissa County At 0841 Hrs. Water Levels Have Significantly Gone Higher As A Result Overspill Of Masinga Dam Displacing Families In Garissa Besides Paralyzing Transport. Initial Assessment Done By Garissa Team Projects 250 Hhs To Have Been Displaced With Majority Seeking Refuge From Relatives. A Temporary Camp Is Being Set Up At Idi Grounds To Host The Displaced Populations As Well As Relocation To Safer Grounds Awareness. Garissa County Disaster Team And Rcat Are On Ground.
28,4/23/2018,Makueni,Floods,Sultan Hamud Along Mombasa Road,-2.0162387,37.3739661,0,0,0,0,0,,0,0,0,0,0,0,0,0,0,EoC,"Gladys Via 0729866448 Reported Flash Floods At Sultan Hamud Area Along Mombasa Road At 1044hrs. The Bridge Near Sultan Hamud Has Since Been Overtopped By Raging Waters Paralyzing Transport At Nairobi-Mombasa Highway. In Addition, Several Families In The Area Marooned Damaging Household Property And Crops. Makueni Krcs Is On Ground Facilitating Assessment"
29,3/18/2018,Samburu,Floods,Samburu East,1.2154506,36.954107,2,0,3,0,0,0,0,0,0,0,0,0,0,0,0,EoC,"At 1300hrs, Eoc Through Social Media Monitoring Captured An Incident That Was A Result Of Flash Floods In Samburu East Constituency. Two People Were Swept Away While 3 Others Reported To Be Missing. Search And Recovery Operations Ongoing By Samburu County Disaster Team."
30,05-05-16,Kilifi,Floods,Kilifi,-3.5106508,39.9093269,0,0,0,0,0,55,0,0,0,0,0,0,0,0,0,EoC,"At 1300hrs, Hassan (Regional Manager) Reported Of Floods In Kilifi County .In Magarini, Bate Sub- Location 55 Households Were Affected And The Village Affected .Currently The Residents Are Being Hosted By Their Relatives. At Kaya Sub Location A Total Of 11 Households Have Been Affected And A Number Of Farms Have Been Damaged .The County Of Government Of Kilifi Supplied Pur Sachets 720 Pieces And 6480 Aqua Tab."
31,4/24/2019,Garissa,Floods,Jarjara Area Of Balambala Garissa,-0.4528916,39.6459487,0,0,0,0,0,0,0,0,0,0,0,0,0,0,0,EoC,"At 1921hrs, Dubow (Krcs Garissa) Notified E.o.c Of A Flash Floods Incident At Jarjara Area Of
Balambala In Garissa County. Several People Were Marooned Following Heavy Rains Experienced
In The Area.the Water Level In Jarjara Area Reduced And All The Families That Were Marooned Were Evacuated
To Safer Areas. However, In Mudey Area The Area Was In Accessible Hindering Assesment Krcs
Garissa To Conduct Assesment Once The Water Level Drops."
32,4/18/2016,Garissa,Floods,Ohio Garissa,40.4172871,-82.907123,0,0,0,0,0,50,0,0,0,0,0,0,0,0,0,EoC,"At 0225 At 0225 Hassan (0720884841) Reported Heavy Rainfall On 16/04/2016 In Ohio Village In Balambala Sub County, In Garissa County. 50 Households Were Adversely Affected By Flash Floods, And Household Items Were Reported To Have Been Swept Away By Raging Floods.   (Brief; 50hh)"
33,5/20/2018,Migori,Floods,Migoricident,-1.0706976,34.4752715,0,0,0,0,0,20,0,0,0,0,0,0,0,0,0,EoC,"At 1020hrs Elly (Krcs Migori) Reported An Incident That Was A Result Of The Constant Heavy Downpour In The Area. The Water Level In A Dam At Kebarisia Village In Kuria  East, Migori Was Filled Beyond Its Capacity And Later Burst Its Banks Today In The Morning, Approximately 20hhs Have Been Affected. No Injuries Or Fatalities Have Been Reported. People Residing Near The Riverine Areas Have Been Advised To Move Safer Areas."
34,3/17/2018,Kiambu,Floods,Gichiiiki Village Kiambu,-1.1748105,36.8304102,0,0,0,0,0,0,0,0,0,0,0,0,0,0,0,EoC,"At 1645hrs, Gitonga Krcs Reported Flash Floods At Gichiiki Village In Thika Following Heavy Down Pour Reported The Previous Night. The Floods Affected 165hhs According To Assessment Done By Kiambu Rcat. The Community Is Requesting For Nfis Donation From Well-Wishers."
35,04-10-16,Marsabit,Floods,Marsabit,2.3354966,37.9943453,1,0,0,0,0,230,0,0,0,0,0,0,0,0,0,EoC,"At 1028hrs, Evans (Krcs Marsabit) Reported Of A Case Of Drowning In Moyale At The Border Ethiopia And Kenya. An 11 Year Old Boy Was Swept Away By The Raging Water While He Was Attempting To Collect Sand From The River Bank, His Body Was Retrieved And Later Buried. Heavy Rainfall Was Received Since Last Evening Into The Morning, With Moyale And North Horr Registering The Highest Amounts Of Rainfall. The Moyale Border Bridge Linking Kenya And Ethiopia Also Collapsed. County Government Of Marsabit And Krcs Team Are Planning To Do A Rapid Assessment Tomorrow. (Brief; 1fatality)"
36,4/22/2018,Kajiado,Floods,Loitoktok Kajiado,-2.924797,37.508143,0,0,1,0,0,,0,0,0,0,0,0,0,0,0,EoC,"Leonard (0716771972) Reported To E.o.c At 1943hrs Of An Incident Where A Woman Was Carried Away By The Flash Floods In Loitoktok Kajiado County, The Woman Was In Company Of 6 Others Who Were Rescued By Well-Wishers. The Body Of The Lady Is Still Missing, Krcs Kajiado And The County Government Working Together In Searching Of The Body."
37,03-07-18,Embu,Floods,Kiamberere Embu,-0.684527,37.792961,3,2,0,0,0,0,0,0,0,0,0,0,0,0,0,EoC,"At 0953hrs, Eoc Via Social Media Captured A Report Of Drowning Incident At Kiruri River, Kiambere In Embu County. Five Nursery School Girls Were Swept Away By Raging Floods Water As They Were Attempting To Cross The River. Three Among Them Were Swept Away And Their Bodies Were Retrieved By Villagers, Two Others Were Rescued By Villagers And Taken To Embu Level Seven Hospital"
38,05-07-18,Lamu,Floods,Milihoi Along Lamu  Malindi Highway,0,0,0,0,0,0,0,0,0,0,0,0,0,0,0,0,0,EoC,Kawthar (Krcs Lamu) Reported Of Flash Floods At Milihoi Area Along Lamu- Malindi Highway At 2309hrs. A Section Of Lamu  Malindi Road Was Cut Off At Milihoi. Several Motorists Were Stranded For Several Hours. Motorists Have Been Advised To Use Alternative Routes.
39,07-04-17,Nakuru,Floods,Rhonda And Ponda Mali Area Nakuru,-0.3030988,36.080026,0,0,0,0,0,50,0,0,0,0,0,0,0,0,0,EoC,"E.o.c Received A Flood Report Via Media And Confirmed With Krcs Nakuru Who Reported More Than 50hh Were Affected, Property Destroyed And Poultry Washed Away By Flood Water That Resulted From A Burst On The Sewer System After Heavy Downpour In The Area. Krcs Team Mitigating Response To The Affected Families As Some Families Have Integrated With The Neighbors While Others Are Camping At The Chiefs Camp"
40,3/19/2018,Kisumu,Floods,Ngeny Office Area Kisumu,-0.0917016,34.7679568,0,0,0,0,0,8,0,0,0,0,0,0,0,0,0,EoC,"Margaret (0723881160) Reported To E.o.c At 1959hrs Of A Flooding Incident At Ngeny Muhoroni Kisumu County, 8hh Have Been Affected And They Are Taking Refuge At Ngeny Primary School."
41,10-05-16,Nakuru,Floods,Rhonda And Ponda Mali Nakuru,-0.3081843,36.0625148,0,0,0,0,0,115,0,0,0,0,0,0,0,0,0,EoC,"Krcs Nakuru Gichimu Reported Flood In Rhonda And Ponda Mali In Nakuru At 0717hrs After Heavy Downpour Experienced In The Area Overnight, Krcs Rcat Team Responded To The Scene And Reported 19hh Affected In Rhonda And 96hh Affected In Ponda Mali Due To Poor Drainage System. The Families Have Gone Back To The Homes After The Water Subsided. (Brief: 115hh)"
42,5/20/2018,Kakamega,Floods,Kakamega,0.2827307,34.7518631,1,0,0,0,0,20,0,0,0,0,0,0,0,0,0,EoC,"Eupreshia (Krcs Kakamega) Reported Of Flash Floods At Namalale Area In Matungu Ward, Kakamega County At 1523hrs. The Rains Affected At Least 20hhs, The Krcs Team Conducted An Assesment. A 53 Year Old Man Drowned In River Retego While Attempting To Cross, Search And Retrieval Was Conducted And His Body Was Retrieved."
43,1/17/2016,Nairobi,Floods,Kariobangi South,-1.2648837,36.8922847,0,0,0,0,0,,0,0,0,0,0,0,0,0,0,EoC,"Magdalene Reported Floods In Kariobangi South Near Kariobangi South Primary School At 1900hrs, Poor Drainage And Clogged Drainage Channels Due To Poor Waste Deposit In The Area Is. Several Plots Around The Area Were Marooned With Dirty Water For Several Hours Before The Water Had Subsided.
Several Roads Were Also Rendered Impassable Due To Raging Flood Water Cutting Across The Roads Mainly Along Kangundo/ Eastern Bypass Intersection, In Utawala, Umoja And Also Along Thika Road Around Roysambu."
44,5/29/2016,Marsabit,Floods,North Horr,3.3206461,37.0695478,0,0,2,0,0,,0,0,0,0,0,0,0,0,0,EoC,"Krcs Marsabit Rm Reported That Heavy Downpour In North Horr And Southern Ethiopia Has Caused Flash Flood In The Area And Roads Cut Off While In Laisamis Sub County An Estimated 200 Shoats Were Swept By Flood And 2 Boys (10 & 14 Years Old) Reported Missing. Krcs Response Team Have Not Been Able To Maneuver And Access The Affected Areas. (Brief: 2 Boys Missing, Approximately 200 Shoats Swept Away)"
45,05-05-18,Kirinyaga,Floods,Kerugoya Town Kirinyaga,-0.4993281,37.2784835,0,0,0,0,0,90,0,0,0,0,0,0,0,0,0,EoC,"Gitonga (Krcs Central) Reported A Flooding Incident Was Reported At Kerugoya Town In Kirinyaga County Following Heavy Rains Reported In The Country. In Addition, Motorists Got Stranded For Around 4 Hours Owing To Overflow Of Rukanga Bridge Near Makutano Along Nyeri-Kerinyanga Road. Assessment Done By Central Krcs Ascertained 16 Hhs Affected By The Raging Waters."
46,4/16/2018,Mandera,Floods,Hadaburudi Area Mandera Co,3.9356389,41.8551162,0,0,0,0,0,4,0,0,0,0,0,0,0,0,0,EoC,"Flash Floods Were Reported At 1425hrs At Hadaburudi Area In Mandera That Swept Away 4 Latrines And 4hh, Rcat Mandera To Conduct Assessment And Share Report."
47,05-02-17,Nairobi,Floods,Nairobi Balozi South B,-1.3199197,36.8480724,1,0,0,0,0,0,0,0,0,0,0,0,0,0,0,EoC,"E.o.c Via Media Received Report Of Drowning Incident In Nairobi At Balozi South B After Heavy Downpour In Nairobi, A 3 Year Old Boy Drowned In A Pool Of Water And Died. The Scene Was Cleared By Nps Officers. (Brief: 1 Fatality)"
48,11-07-17,Marsabit,Floods,Laisamis,1.5962079,37.8061146,2,0,0,0,0,0,0,0,0,0,0,0,0,0,0,EoC,"At Around 1850hrs, Talaso Regional Manager Reported A Drowning Incident At Laisamis Sub County. 2 School Children (A Boy And A Girl Aged 10 And 12 Years) From Kamboe Primary School. Bodies Were Retrieved And Were Taken Logologo Health Center"
49,3/13/2018,Narok,Floods,"Majengo, Narok",-1.2860894,36.8425202,1,0,0,0,0,0,0,0,0,0,0,0,0,0,0,EoC,"At Around 2111hrs, Omondi (Krcs Narok) Reported Of Flash Floods At Kumi Kumi River Near Majengo In Narok County. One Person Drowned While Attempting To Cross The River After It Had Swollen. The Body Was Taken To Narok Mortuary By Kws Rangers"
50,09-08-18,Baringo,Floods,Baringo,0.8554988,36.0893406,1,0,0,430,0,0,0,0,0,0,0,0,0,0,0,EoC,Eoc Received Reports Of Flash Floods Reports At 0830hrs.the Roads Were Destroyed Following A Heavy Down Pour That Caused River Perkera To Divert Its Route And Into The Settlements. An Elderly Man Was Found Dead As A Result Of Drowning. Approximately 430 Families Have Been Displaced.
51,4/29/2016,Muranga,Floods,Gakiria Maragua,0,0,0,0,1,0,0,5,0,0,0,0,0,0,0,0,0,EoC,"Krcs Maragua, Muranga County Government, Kenya Police And The Locals Have Been Searching For An Old Lady Believed To Have Been Buried After A Landslide Affected Gakiria Village In Maragua. Heavy Downpour Has Continuously Been Hampering Sar Effort By The Response Teams For The Past 4 Days While Trying To Recover An Old Lady."
52,12/18/2015,Kakamega,Floods,Malaa Village Mumias Kakamega,0.3332218,34.4877423,0,0,0,0,0,1,0,0,0,0,0,0,0,0,0,EoC,"At 0906hrs, Odongo (Krcs Kakamega) Reported Of A Floods Incident In Kakamega County.  Average Rainfall As Received In Most Parts Of The County. In Kakamega Town, It Rained In The Afternoon Into The Evening. An Incident Was Reported In Malaa Village In Mumias Sub-County Where Landslide Hit A Family House With 5 Members. No Injuries Were Reported However"
53,05-12-17,Siaya,Floods,Uhembo And Kamalunga Villages,-0.0617328,34.2421597,0,0,0,0,0,50,0,0,0,0,0,0,0,0,0,EoC,"At 1025hrs, James (Krcs Siaya) Reported Of An Incident That Was As A Result Of Heavy Downpour. The Water Level At Kamahu Dam In Alego Usonga Increased And Later The Dam Burst Resulting Into Flash Floods In Uhembo And Kamalunga Villages. Approximately 50hhs Have Been Reported To Be Affected. Joint Assessment Was Conducted And A Report Will Be Shared."
54,11/26/2017,Narok,Floods,Narok Town,-1.0875428,35.8770642,0,0,0,0,0,0,0,0,0,0,0,0,0,0,0,EoC,"Omondi Krcs Narok Reported Flash Floods At 1740hrs In Narok Town Affecting Naivasha And Stage Areas, Krcs Team To Conduct Assessment To Ascertain The Extent Of Damage Caused During The Incident"
55,6/18/2018,Tana River,Floods,Kipini Tana River,-2.5265605,40.529246,0,0,0,0,0,0,0,0,0,0,0,0,0,0,0,EoC,"At 1302hrs, Mainstream Media Reported Floods At Kipini Area Of Tana River County Following Continuous Down Pour In The Last 3 Months Damaging Homes, Crops And Infrastructure Across The County. In Addition, Cases Of Cholera Have Been Reported Which Have Since Been Neutralized By The M.o.h Alongside Tana River Krcs Team. Residents Are Further Appealing For A Long Term Humanitarian Intervention To Facilitate Reconstruction To The Affected"
56,02-11-16,Kajiado,Floods,Isinya,-1.6727148,36.8425202,0,0,0,0,0,0,0,0,0,0,0,0,0,0,0,EoC,"At 0405hrs, David (0721355361) Reported Of A Case Of Floods At Isinya, Kajiado County. The Water Level At River Isinya Increased Beyond Its Capacity And Broke Its Bank. Assessment Was Conducted Today By Krcs Kajiado And The Results Were 30 Households Were Affected, 6 Goats Were Reported Missing, 5 Goats And 8 Chicken Were Swept Away By Flash Floods. No Fatality Or Injury Was Reported .Latrines Have Also Collapsed And Flower Farm Chemicals Were Swept Away From A Factory And Spilled To Compounds Creating A Health Risk To The Residents.(Brief;30hhs;11goats;8chicken)"
57,03-07-18,Machakos,Floods,Machakos,-1.5176837,37.2634146,0,0,0,0,0,0,0,0,0,0,0,0,0,0,0,EoC,At 0920hrs Eoc Through Social Media Monitoring Captured An Incident That Was As A Result Of Heavy Downpour In Machakos County.  Motorists Were Stuck At Kivingoni Market For Several Hours After A Culvert Collapsed In Mbembani Junction Along Ekalakala-Matuu Road. More Than Twenty Lorries Transporting Sand Were Stuck.
58,5/13/2018,Kitui,Floods,Kitui Flash Flods Update,-1.3750813,37.9952144,4,0,1,0,0,0,0,0,0,0,0,0,0,0,0,EoC,"At 14555hrs, Usna Krcs Kitui, Reported Of Four Bodies Have Been Retrieved At Enziu River With The Wreckage Of The Probox. All The Four Bodies Have Been Identified By The Family Members. One Body Of A Form One Student Still To Be Retrieved."
59,12-12-18,Kisumu,Floods,Lwala Village,-0.5,34.366667,0,0,0,1440      69,0,0,0,0,0,0,0,0,0,0,0,EoC,"At 0127hrs, Seth Via 0725699682 Reported Of Flash Floods At Lwala Village In Kisumu County. River Awach Burst Its Banks And Led To Flash Floods, The Water Level Subsisded After A Few Hours.  Elsewhere In Nyando Sub- County At Least 22hhs Were Affected In Ombaka, Kawino, Ugwe And Nduru Areas. They Are Currently Camping At A Nearby Church."
60,07-12-17,Turkana,Floods,Along Lodwar- Kakuma Road,3.7117861,34.8614195,0,0,0,0,0,0,0,0,0,0,0,0,0,0,0,EoC,Nick Thuo (0720334240) At 0600hrs Reported Of A Traffic Gridlock Along Lodwar- Kakuma Road Following Heavy Rains In Turkana Overnight That Made Several Seasonal Rivers To Be Full.
61,05-02-17,Wajir,Floods,Kolodile Wajir,2.9901912,39.3149316,0,0,0,0,0,,0,0,0,0,0,0,0,0,0,EoC,"Abdia Krcs Coordinator Reported Floods In Wajir At Kolodile After 2 Dams Burst Bank And The Water Flooded The Village, Krcs Team Will Conduct An Assessment And Share Report."
62,03-04-18,Kilifi,Floods,Magarini Area Kilifi,-3.033333,40.066667,0,0,0,0,0,21,0,0,0,0,0,0,0,0,0,EoC,"Masoud (Krcs Kilifi) Reported Of Flash Floods In Kisiki Cha Mzungu Village In Magarani At 1020hrs. Several Households In The Villages Were Reportedly Affected By The Heavy Downpour, Assessment Was Conducted During The Day And The Report Will Be Shared After Completion. Reports Indicate That The Water Level At Galana River Is Steadily Increasing, This May Likely Result Info Flashfloods If It Rises Beyond Its Threshold. Krcs Kilifi Team Are Closely Monitoring The Situation."
63,12-01-18,Meru,Floods,Kaelo Market Igembe North,0.3533449,37.9490783,0,0,0,13,0,0,0,0,0,0,0,0,0,0,0,EoC,Gitonga (Krcs Central) At 2147hrs Reported Flash Floods At Kaelo Market In Igembe North Following Heavy Rains Experienced In The Area. Approximately 13 Business Shops Were Affected.  No Injuries Was However Reported
64,5/14/2018,Bungoma,Floods,Kapchai Village Bungomat,0.8084283,34.597132,0,1,0,0,0,0,0,0,0,0,0,0,0,0,0,EoC,"Timothy (0712656195) Reported To E.o.c At 2124hrs Of A Lightning Strike Case At Kapchai Village, A Std 7 Primary School Girl Was Critically Injured And Was Taken To Kapchai Hospital For Treatment. Many Families Are Reported To Have Been Rendered Homeless As A Result Of The Heavy Rainfall Experienced In The Region."
65,4/29/2016,Meru,Floods,"Makutano Market, Meru",0.059824,37.644015,0,0,0,0,0,,0,0,0,0,0,0,0,0,0,EoC,Heavy Downpour Was Reported In Meru That Rained Overnight And Goods That Were In Makutano Market Were Swept Away By Flash Floods Leaving The Business Men And Ladies Counting Losses.
66,05-04-18,Tharaka-Nithi,Floods,Magumoni Tharaka Nithi,-0.3789017,37.649306,0,0,0,0,0,25,0,0,0,0,0,0,0,0,0,EoC,"E.o.c At 1857hrs Received Report Of A Landslide That Occurred In Magumoni In Thara Nithi County, 12hh Were Affected, 25hh Are Camping At Magumoni Pcea Church Due To Potential Risk Of Mass Mudslide."
67,05-01-17,Turkana,Floods,Lochwagamatak Turkana,3.3122477,35.5657862,2,0,0,0,1,,0,0,0,0,0,0,0,0,0,EoC,"Nick County Coordinator Turkana County Reported Flash Floods At 1408hrs At Lochwagamatak In Turkana South Where By 3 Juveniles Were Swept By Raging Water, 1 Was Rescued And The Other 2 Unfortunately Died From The Incident. (Brief: 1 Rescued; 2 Fatalities)"
68,4/16/2018,Kisumu,Floods,Nyando Area Kisumu,-0.1016476,34.7510219,0,0,0,0,0,0,0,0,0,0,0,0,0,0,0,EoC,Owino Via 0735488307 Reported Floods In Nyando Area Of Kisumu County At Around 0937hrs Affecting Farms And Marooning Households. The Affected Population Has Since Been Evacuated By Kisumu Krcs To Rae Primary School As They Await Water Levels To Subside. Final Assessment And Mobilization Of Fis And Nfis Still Ongoing.
69,4/28/2018,Muranga,Floods,Muranga,0,0,0,0,0,0,0,0,0,0,0,0,0,0,0,0,0,EoC,"Gitonga (Rm Cental) Reported Of Mudslide Incident Into Two Areas Consecutively, Kahatia And Gitugi Villages In Muranga County, Rcat Muranga Was Activated To The Scene And Will Give Report Updates."
70,3/20/2018,Kajiado,Floods,"Nginye, Kajiado",-1.8420731,36.7918599,1,0,0,0,0,0,0,0,0,0,0,0,0,0,0,EoC,A Drowning Incident Was Reported At Nginye Area In Kajiado County By Leonard (Krcs Kajiado) A T 1030hrs. An Adult Man Was Swept Away By Raging Floods As He Was Attempting To Cross The Road After The River Had Swollen. Search And Recovery Was Conducted And The Body Was Retrieved And Taken To A Morgue In Kitengela
71,4/27/2019,Nyeri,Floods,Jua Kali Area,-0.437099,36.9580104,0,0,0,0,0,0,0,0,0,0,0,0,0,0,0,EoC,"At 1320hrs E.o.c Via Social Media Captured Reports Of Flash Floods Incidents In Jua Kali Area.
Several Houses Was Reported To Have Been Affected By Water After It Poured Heavily Yesterday
Night. Krcs Nyeri Branch Closely Monitors The Situation In Case Of Any Major Incident."
72,4/29/2016,Isiolo,Floods,Garbatullah,0.5337033,38.5112693,0,0,0,0,0,10,0,0,0,0,0,0,0,0,0,EoC,"Krcs Isiolo At 1530hrs Reported Floods In Garbatullah After Heavy Downpour That Has Affected Approximately 10hh, Krcs Response Team Cannot Access The Area Due To Cut Off Roads By The Raging Waters. Krcs Team Waiting For Water To Subside So As To Carry Out Assessment And Necessary Intervention In The Affected Areas. (Brief: 10hh)"
73,4/17/2016,Kwale,Floods,Vanga,-4.6606724,39.2193638,0,0,0,0,0,7,0,0,0,0,0,0,0,0,0,EoC,"Heavy Rainfall Experienced In The Coastal Region Has Rendered Residents In Vanga Area Displaced, Seeking Refuge On Higher Grounds. Seven Villages Were Marooned As A Result Of The Downpour. (Brief: 7villages Affected)"
74,03-03-18,Nyeri,Floods,Asian Court Estate Nyeri,-0.4284011,36.9418824,0,0,0,0,2,10,0,0,0,0,0,0,0,0,0,EoC,"At Around 2037hrs, Gitonga (Rm Central) Reported Of Flash Floods At Asian Court Estate In Nyeri County. Following The Heavy Downpour Experienced During The Day, Several Families Were Rendered Homeless As The Leaving At The Asian Court Estate With No Shelter. Assesment Conducted Indicated That 10hhs Were Affected.  Nyeri Rcat Team And The County Fire Brigade Rescued 2 Children That Were Marooned In Water."
75,05-04-18,Wajir,Floods,Drowning Incident Dagahaley,0.1891303,40.2833315,0,0,1,0,0,0,0,0,0,0,0,0,0,0,0,EoC,"O.c Received Report Of A Drowning Incident At Dagahaley Wajir South, 1 Person Drowned While Crossing A Seasonal River. Sar Ongoing For The Missing Person By Rcat And County Officers"
76,4/20/2018,Wajir,Floods,Wajir North,1.6360475,40.3088626,0,0,0,0,0,0,0,0,0,0,0,0,0,0,0,EoC,"Flash Floods Was Reported After Heavy Downpour That Paralyzed Transport Cutting Off Nairobi Wajir Road And Habasein Moyale Road In Wajir South, Food Shortage And Fuel Experienced In The Area As From Yesterday."
77,5/13/2016,Busia,Floods,Budalangi,0.0773679,34.041865,3,0,0,0,0,0,0,0,0,0,0,0,0,0,0,EoC,"Krcs Velma Reported Floods In Budalangi At Musoma Area Due To Back Flow From Lake Victoria That Led To River Nzoia Bursting Its Banks At Around 1045hrs, Krcs Response Team Carrying Out Assessment In The Area And Will Share Report. (Brief: 3 Fatalities; 1 Fatality Unconfirmed)"
78,5/28/2018,Nakuru,Floods,Nakuru,-0.3030988,36.080026,1,0,1,0,0,0,0,0,0,0,0,0,0,0,0,EoC,"Vinnie (0703325515) Reported To E.o.c At 1947hrs Of A Flash Floods Incident After Heavy Rainfall Reported In Nakuru Cbd, 2 Girls Were Swept Away When They Were Escaping The Flooded Section Of The Railways Bridge. The Body Of 1 Girl Was Found Near Nakuru Nursing Hospital. Krcs Joined The Family Of The Missing Child, The County Government And The Local Community To Search For The Missing Girl."
79,5/27/2018,Elgeyo-Marakwet,Floods,Chesoi Elgeyo Marakwet,1.070578,35.584179,0,0,0,0,0,0,0,0,0,0,0,0,0,0,0,EoC,Kemboi Rm Reported A Land Slide At Chesoi In Elgeyo Marakwet Following Persistent Heavy Down Pour Reported In The Country At 1123hrs. The Landslides Have Barricaded Tarmac Road At Chesoi Paralyzing Transport In The Area As Well As Hindering Humanitarian Response. No Injuries And Displacements Reported In The Area.
80,11/27/2017,Narok,Floods,"Narok Town, Narok(Update)",-1.0875428,35.8770642,0,0,0,0,0,0,0,0,0,0,0,0,0,0,0,EoC,"Omondi (0721297550) Reported To E.o.c At 1213hrs Of A Flooding Incident In Narok Town After A Heavy Rain Fall Last Night , The Shop Owners Tried To Remove Soil From Their Shops And Hass Petrol Station Was Heavily Affected Too Since It Is Located Close To The River. No Casualties Reported."
81,4/28/2016,Turkana,Floods,Turkana,3.3122477,35.5657862,0,0,0,0,0,,0,0,0,0,0,0,0,0,0,EoC,"Rukia (Krcs Turkana) Reported Of Floods Cases In Turkana County At 1730hrs.  Rainfall Experienced Since Last Evening Till Today, It Rained Continuously For Several Hours Leading To The Increase Of Water Level In Most Water Bodies .In Nakiria Lagga It Broke Its Bank Leading To Flash Floods In Kalolal, The Area Affected Includes The Market Area .The Road Linking Kalolal And Lodwar A Section Of It Was Cut Off, Hindering  Any Movement. Assessment Will Be Conducted Tomorrow Once The Rains Subside."
82,05-01-17,Meru,Floods,Timau Town Meru,0.0854987,37.2383506,0,0,0,0,0,13,0,0,0,0,0,0,0,0,0,EoC,Gitonga Rm Central Region Reported Floods At 1339hrs At Timau Town Meru County Where By 13hh Were Affected. (Brief: 13hh Affected)
83,4/30/2018,Nairobi,Floods,Kiandutu Slums Nairobi City Cou,-1.0525771,37.0762539,0,0,0,0,0,90,0,0,0,0,0,0,0,0,0,EoC,"Flood Incident Was Reported At Kiandutu Slums In Nairobi At Around 0323hrs Affecting 90hhs, The Displaced Families Are Camping At Waithaka Special Needs School."
84,03-11-18,Marsabit,Floods,Laisamis Marsabit,1.5962079,37.8061146,0,0,0,0,0,0,0,0,0,0,0,0,0,0,0,EoC,"At Around 0814hrs, Talaso Krcs Upper Eastern Notified E.o.c Of Floods At Laisamis Sub County In Marsabit County. Property Of Unknown Value Has Been Destroyed And Several Households Displaced Following Strong Winds And Heavy Down Pour Reported In The Area. Rapid Assessment Is Underway Courtesy Of Marsabit Krcs Team."
85,09-02-18,Baringo,Floods,Baringo,0.8554988,36.0893406,0,0,0,0,0,3,0,0,0,0,0,0,0,0,0,EoC,"E.o.c Through Social Media At 1015hrs Captured Reports Of Flooding Incident At Baringo County Following Heavy Rainfall Reported Over The Last 2 Days. Three Schools Namely; Sintan Primary, Leswa Primary And Ngambo Secondary Have Since Been Closed Indefinitely Till Water Levels Subside. Baringo Krcs Has Since Been Activated To Conduct Assessment."
86,4/15/2018,Tana River,Floods,Tana River,-0.9628511,39.8698303,0,0,0,0,0,0,0,0,0,0,0,0,0,0,0,EoC,"At 1124hrs, Bombe Updated E.o.c On Evacuation Progress To Communities Affected By Flash Floods Following A Heavy Down Pour In Tana River County. A Total Of 41 Families From Damaka, Mulungeni, Manani And Gama Villages Have Been Evacuated To Safer Grounds By Tana River Rcat. Tana River Rcat Is Still On Standby In The Affected Areas"
87,5/30/2018,Kisumu,Floods,Nyamasaria,-0.116058,34.7837456,1,0,0,1900,0,0,0,0,0,0,0,0,0,0,0,EoC,"Eoc Through Mass Media Monitoring Captured Reports Of A Drowning Incident Where The Body Of A Standard 6 Pupil Was Retrieved In River Nyamasaria In Kisumu County. The Pupil Drowned While Trying To Cross The River Following Heavy Rains In The Area. Search And Recovery Efforts Was Conducted By Divers And Community Members, The Body Was Retrieved After 5 Days. The Body Was Later Transported To The Morgue"
88,9/17/2017,Narok,Floods,Duka Moja Past Suswa,-1.1067878,36.2395767,0,0,0,0,0,,0,0,0,0,0,0,0,0,0,EoC,"E.o.c Via Social Media Received Report Of Flash Floods Along Narok Road Past Suswa Near Duka Moja After Heavy Downpour At 1530hrs, Motorist Waited For The Water To Subside Before Proceeding With Their Journey."
89,05-03-17,Mandera,Floods,Banisa- Mandera Route,3.9311898,40.2271243,0,0,0,0,0,0,0,0,0,0,0,0,0,0,0,EoC,"At 1402hrs Yusra (Krcs Mandera) Reported An Incident That Was A Result Of Heavy Rainfall In Most Parts Of Mandera County. A Matatu Plying The Banisa- Mandera Route Was Swept Off By The Raging Waters, No Injuries Nor Were Fatalities Reported. More Rains Expected In The Region Today."
90,05-04-17,Wajir,Floods,Bute Wajir,2.0005345,39.7575272,0,0,0,0,0,,0,0,0,0,0,0,0,0,0,EoC,"At 1025hrs, Abdia (Krcs Wajir) Reported Of Incidences That Were As A Result Of Heavy Rainfall In Wajir County. A Large Number Of People Were Reported To Have Shifted From Their Houses And Are Moving To Safer Grounds. A Number Of Households Were Damaged By The Heavy Rains In Bute."
91,12-11-15,Kwale,Floods,Busia,0.4607691,34.1114621,0,0,0,0,0,0,0,0,0,0,0,0,0,0,0,EoC,"At 0800hrs Philip (Krcs Busia) Reported Of Incidents That Were As A Result Of Heavy Rainfall. Significant Amounts Of Rainfall Were Received In The County And The Highland Environs, This Led To The Increase Of Surface Water Flow And Flash Floods In Kabuto And Nyora Locations. Residents Have Moved To The 2 Campsites That Were Already Set Up In The Mentioned Areas. Krcs Migori Will Visit The Sites To Register The New Members."
92,12/18/2015,Nandi,Floods,"Ngatitkong And Kapkoros Village, Nandi",0.0420941,35.3571056,0,0,0,0,0,2,0,0,0,0,0,0,0,0,0,EoC,"At 0800hrs, Tallam (Krcs Nandi) Reported Of Incidents That Were As A Result Of Heavy Rainfall In The Last 24 Hours In Nandi County. Average Rainfall Was Witnessed In The County. In Ngatitkong Witnessed A Rock Fall And 2 Households Were Reported To Be Affected. Mudslide Buried 2 Goats Alive In Kapkoros Village, Tinderet Sub-County. Flash Floods Affected 2 Households In Kaptuma"
93,11/19/2017,Kilifi,Floods,Tana River,-1.6518468,39.6518165,0,0,0,0,0,1740,0,0,0,0,0,0,0,0,0,EoC,"Caleb (Krcs Tana River) Reported Of Impacts Of Heavy Downpour In Tana River County At 1130hrs. The Water Level At Tana River Rose Beyond Its Capacity And Caused Flash Floods In Baomo, Maziwa, Korlabe, Tawakal And Eskedec Areas. Assesment Was Conducted By The County Government And Krcs At Maziwa And Fiji Areas .The Findings Were 400hhs Were Affected In Fiji Area And Over 1000 Acres Were Submerged While In Maziwa Area Approximately 230 Hhs Were Affected And 740 Acres Of Land Destroyed.  The Food Crops That Were Destroyed Include Watermelon, Maize, Bananas And Green Grams. The Residents Leaving Along The Water Banks Have Been Advised To Move To Higher Grounds."
94,05-01-18,Kisumu,Floods,River Asao,-0.0917016,34.7679568,1,0,0,0,0,0,0,0,0,0,0,0,0,0,0,EoC,"Maurine (0724315549) Reported To E.o.c At 2121hrs Of A Middle Aged 42 Years From Upper Nyakach Sub County Who Was Swept Away By Floods In River Asao As He Was Heading Home. Unfortunately He Lost His Life, His Body Was Retrieved By Well-Wishers And Taken To The Mortuary By The National Police"
95,06-09-18,Marsabit,Floods,"Kardi Ward, Marsabit",2.3354966,37.9943453,1,0,0,0,0,0,0,0,0,0,0,0,0,0,0,EoC,"At 2027hrs, Kulama (0720451210) Reported Of A Drowning Incident In Kardi Ward, Marsabit County. A 13-Year-Old Girl Drowned In A Water Pan While Playing.  Search And Retrieval For The Missing Minor Are Ongoing By The Krcs Team And The Area Residents."
96,12-01-15,Wajir,Floods,Eldas And Buna Wajir,2.7921671,39.5019638,0,0,0,0,0,275,0,0,0,0,0,0,0,0,0,EoC,At 1030hrs Ahmed (Krcs County Manager) Reported A Flooding Incident In Wajir County Following Heavy Rainfall Pounded The County. For Several Hours Into The Morning There Were Heavy Rainfalls Which Lead To Flash Floods In Eldas And Buna Areas. 150 Households And 125 Households Have Been Affected In Buna And Eldas Respectively. Krcs Wajir Team Is Carrying Out A Detailed Assessment To Determine The Extent Of Need. (Brief; 275hhs).
97,5/16/2018,Migori,Floods,Migori,-1.0706976,34.4752715,0,0,0,0,0,3,0,0,0,0,0,0,0,0,0,EoC,"At Around 2042hrs, Kagono (0705080952) Reported An Incident Where 3 Classrooms At Kokuro Boys, Awendo Sub-County In Migori County Were Blown Off By Strong Winds That Accompanied Heavy Rainfall Experienced In The Area. No Injury Was Reported"
98,3/22/2018,Busia,Floods,"Matayos , Bungoma",0.3617923,34.1684918,1,0,0,0,0,0,0,0,0,0,0,0,0,0,0,EoC,"Latrine That Was Destroyed By Flood At Matayos In Busia County Collapsed While 2 Men Were Doing Repairs, 1 Person Fell In The Latrine And Died, The Community Members Managed To Retrieve The Body And Taken To The Morgue"
99,05-04-16,Garissa,Floods,Garissa,-0.4532293,39.6460988,0,0,9,0,0,0,0,0,0,0,0,0,0,0,0,EoC,"Garissa County From Krcs Garissa Rm At 0800hrs, Areas Affected Were Bula Kamor, Jariot, Modogashe, Jamuhuri, Kamukunji, Lagdera And Mwororo After River Tana Burst Banks. Krcs Garissa Response Team Carrying Out Assessment And Sar For Trapped Persons, The Team Will Share Detailed Report."
100,05-05-17,Wajir,Floods,Wajir.,1.7488388,40.058633,0,0,0,0,0,287,0,0,0,0,0,0,0,0,0,EoC,At 0300hrs Abdia (0724474194) From Wajir Krcs Reported Flood That Affected 287 House Hold. No One Was Injured During The Flood. Krcs Wajir Branch Helped To Evacuate The Affected People To A Safer Area.
101,10/27/2018,Kwale,Floods,"Lunga Lunga, Kwale",-4.5534909,39.1283506,0,0,0,0,0,,0,0,0,0,0,0,0,0,0,EoC,Eoc Through Mass Media Monitoring At 2105hrs Captured Reports Of Flash Floods Along Likoni- Lunga Lunga Highway After River Ramisi Burst Its Banks. Motorists Plying The Route Were Stranded For Several Hours After Transport Was Paralyzed Along The Highway. Mwande Bridge Which Connects Kenya And Tanzania Through Lunga Lunga Was Overtopped By Flood Waters Following Heavy Rains Experienced In The Area.
102,05-01-18,Bungoma,Floods,Nakwana River,0.5922286,34.4196856,0,0,0,0,1,0,0,0,0,0,0,0,0,0,0,EoC,James (0706724180) Reported To E.o.c At 2001hrs Of A Flooding Incident At Kimwanga Along Malaba Highway. River Nakwana Burst Its Banks And Swept Away A Bodaboda Rider As He Was Crossing The Bridge. The Rider Was Rescued By County Ambulance Fire Department And Bumula Ambulance As He Had Sought Refuge On A Tree
103,5/22/2017,Bungoma,Floods,Mt Elgon,1.1492924,34.5417619,0,0,0,0,0,0,0,0,0,0,0,0,0,0,0,EoC,"James (0710908681) Reported Flood In Mt. Elgon At Kaptenga, Kapunda, Kasmende And Kapsokwony Areas After Heavy Downpour. River Terem, River Kamukuiywa And River Rwahaha Water Level Rose High And Most Bridges Were Overtopped By Water And Also Most Murram Roads Washed Away By Flood Water. Bungoma Rcat Will Share A Report After Conducting Assessment In The Affected Areas."
104,4/16/2016,Mombasa,Floods,Mombasa,-4.0434771,39.6682065,1,2,0,0,0,0,0,0,0,0,0,0,0,0,0,EoC,"Krcs Mombasa Reported Most Affected Areas Include Likoni, Mtongwe, Magongo, Wayani, Migadini And Other Parts Of Jomvu Constituency, Krcs Team Is Also Carrying Out An Assessment At Kisauni Constituency Where Families In Mishomoroni, Barsheba, Mwandoni, Mtopanga And Bamburi Are Experiencing The Same Problem. In Bondeni 2 People Were Injured And 1 Died After They Were Electrocuted While Trying To Unclog A Drainage In The Area. (Brief: 2 Injuries; 1 Fatality)"
105,05-02-17,Vihiga,Floods,"Maragoli North, Vihiga",0.0815437,34.7229677,0,0,0,0,0,,0,0,0,0,0,0,0,0,0,EoC,"Muresia (0714325404) Reported Floods In Maragoli North At Kithama Sub Location Kisangula Village, The Farms In The Area Were Submerged And Several Crops Destroyed. Krcs Team To Conduct Assessment In The Area."
106,07-05-17,Baringo,Floods,River Nginyang,0.8373344,35.6421375,0,0,1,0,0,0,0,0,0,0,0,0,0,0,0,EoC,"Langat Krcs Coordinator Reported A Man Was Swept Away By Raging Waters While Crossing A Stream Feeding River Nginyang At 0841hrs, Krcs Team And Local Community Members Conducting Sar For The Missing Man"
107,12-01-15,Garissa,Floods,"Banane, Modagashe, And Gurufa Villages Garissa",-0.4532293,39.6460988,0,0,0,0,0,3500,0,0,0,0,0,0,0,0,0,EoC,"At 1200hrs Jillo (Krcs County Manager) Reported Flooding Incidents In Garissa County. Following Heavy Rainfall Experienced In The Highland Areas Of Meru, Flash Floods Affected; Banane, Modagashe, And Gurufa Villages After River Togweyne Broke Its Banks. Approximately 3500 Households Have Been Affected. Krcs Teams, Officials From Both County And National Governments Are Currently Carrying Out Assessments In The Affected Areas. (Brief; 3500hhs)"
108,05-08-16,Kiambu,Floods,Ruiru Kiambu,-1.14825,36.9604534,0,0,0,0,0,30,0,0,0,0,0,0,0,0,0,EoC,"Floods Incident Was Reported @2149 Hrs. By Doctor Mugambi (0720966396) In Victoria Court, Membly Area Ruiri Near Clay Works.eoc Activated Kiambu Fire Brigade To Go And Rescue People Who Were Marooned In Their Houses. Approximately 30hhs Were Affected."
109,12-03-15,Wajir,Floods,Wajir,1.7488388,40.058633,0,0,0,0,0,80,0,0,0,0,0,0,0,0,0,EoC,"At 0800hrs Ahmed (Wajir County) Reported Of A Case Caused By Heavy Floods In Wajir County. The Entire Wajir County Has Received An Increase In The Amounts Of Rainfall In The Last 48 Hours. An Elderly Female Person Was Reported To Have Been Swept Away By The Raging Water While She Was Attempting To Cross, Search And Recovery Efforts Are Currently Ongoing. In Malala Village Approximately 80 Families Have Been Affected. Plans Of Distribution Are Underway."
110,4/23/2019,Nairobi,Floods,Katwekera Kibera,-1.3114845,36.7879475,2,0,0,119,1,0,0,0,0,0,0,0,0,0,0,EoC,"At 1704hrs, Esther Klb Reported To E.o.c Of A Flash Flood Incident In Katwekera In Kibera
Following Heavy Downpour Experienced Yesterday In The Evening. The Flood Swept Away And
Drowned A Mother With Her Two Kids. The Bodies Of The Diseased Were Retrieved At The Nairobi
Dam Inlet Near Jonathan Ngeno Estate Area.the Mother Was Rescuscitated Successfully. The Bodies Of The Deceased Were Taken To Nairobi
City Mortuary By The Kenya Police.
Assessment Conducted By
Krcs Karen Langata Branch Established That Approximately 119 Houses Were Marooned By Flash
Floods. Krcs Klb Will Give Out Nfis To The Affected Families."
111,12-08-15,Marsabit,Floods,Marsabit,2.3354966,37.9943453,1,0,0,0,0,316,0,0,0,0,0,0,0,0,0,EoC,"At 0820hrs Talaso (Krcs Marsabit) Reported Of Incidents Brought About By Heavy Rainfall In Marsabit County. Heavy Rains Pounded Most Parts Of The County With North Horr And Moyale Registering The Highest Amounts Of Rainfall. The Rains Were Accompanied By Strong Winds, Property Of Unknown Value Was Damaged, Roofs And Structures Were Also Blown Off,  A Team Has Been Set To Conduct An Assessment In The Areaand They Found That The Villages That Were Most Affected Include Lopur;316 Households Affected,Kapkor;70 And In Kakirega 77 Households Were Affected. A Total Of 426 Families Were Directly Affected. Bofchaba Area Which Is A Few Kilometers From Marsabit Town,33 Households Were Reported To Have Been Affeccted. A 10 Year Old Boy Drowned In Arojaika Dam, His Body Was Retrieved In The Afternoon. (Brief; 33hhs; 1 Fatality)"
112,01-04-18,Mombasa,Floods,Hussein Masjid Mombasa,-4.0039978,39.6983939,0,0,0,0,0,0,0,0,0,0,0,0,0,0,0,EoC,E.o.c Via Social Media At 1800hrs Captured A Report Of An Electric Pole That Fell Down With Cables Blocking The Entire Road At Hussein Masjid Junction Near The Bohra Mosque. No One Was Injured But There Was Heavy Traffic Jam In The Area.
113,11/26/2018,Tana River,Floods,Bura,-1.1,39.95,0,0,0,0,0,0,0,0,0,0,0,0,0,0,0,EoC,"At 1807hrs, Bombe  (Krcs) Reported To E.o.c Of Flash Floods At Bura In Tana River County.    Following Heavy Downpour Flash Floods Occurred And Has  Affected At Least  25 Households. Some Of The Residents Who Were Affected By The Floods  Have Integrated With Other Relatives And Friends. Other Villagers Affected Were The Manyatta, Bulasukela And Bula Lami.  Rcat Team To Conduct An Assessment To Establish The Extent Of The Damage"
114,01-11-18,Homa Bay,Floods,Homabay,-0.5350427,34.4530968,0,0,0,0,0,6,0,0,0,0,0,0,0,0,0,EoC,"At Around 0930hrs, Caleb Via 0719472104 Reported Floods In Kanam Area In Homabay County. Strong Winds Attached With Heavy Down Pour Have Displaced Several Families And Destroyed Property Of Unknown Value In The Area. Rapid Assessment Is Underway In Facilitation Of Homabay  Krcs Team."
115,5/19/2016,Nairobi,Floods,Nairobi,-1.2920659,36.8219462,2,0,0,0,0,0,0,0,0,0,0,0,0,0,0,EoC,E.o.c Via Mass Media @ 1127 Hrs Captured Reports Of An Incident In Which Two Pupils Were Swept Away By Floods At Kangemi Early In The Morning On Their Way To School. One Body Of The Children Has Been Retrieved (Brief: 2 Fatalities; )
116,10/29/2018,Mombasa,Floods,Mombasa,-4.0434771,39.6682065,0,0,0,11,0,,0,0,0,0,0,0,0,0,0,EoC,"Several Cases Of Flash Floods Incidents Were Reported In Different Parts Of Mombasa County Following Heavy Rains Experienced In The Region. During The Reporting Period The Following Structural Damages Were Reported; Mwamlai Wall Opposite Nys Miritini Collapsed, Rabai Ndogo Foot Bridge Was Also Swept Away By Flash Floods. Furthermore, Two Houses Collapsed In Maganda Area Displacing Eight Households And 3 Houses In Jitoni Were Swept Away By Raging Waters.  No Injuries Were Reported In All The Incidents."
117,01-12-18,Narok,Floods,Narok,-1.0875428,35.8770642,0,0,0,0,0,0,0,0,0,0,0,0,0,0,0,EoC,Elli (0726948137) Reported To E.o.c At 2033hrs Of A Flooding Incident In Narok Town Due To Heavy Rainfall. The Flooding Incident Did Not Cause Any Damage And No Casualties Reported.
118,05-04-16,Tana River,Floods,Tana Delta,-2.271263,40.1043381,0,0,0,0,0,268,0,0,0,0,0,0,0,0,0,EoC,"E.o.c Received Information Of Floods In Tana Delta At 0850hrs, Several Villages Were Affected After River Tana Burst Banks Mainly In Baomo, Afeji, Korlabe A, Korlabe B, Korlabe C, Eskadek, Tawakal, Kiembeni And Kampole.
In Kiembeni 170hh Were Affected (100hh Are Farmers Who Had Planted Maize, Watermelon And Greengrams Each Hh Have 2 Acres Of Farmland) While In Tawakal 98hh Affected (64hh Are Farmers And Each Hh Have 2 Acres Of Farmland And Had Planted Maize, Cowpeas And Greengrams. (Brief: 9 Villages)"
119,4/28/2018,Busia,Floods,Busia,0.4607691,34.1114621,0,0,0,0,0,4,0,0,0,0,0,0,0,0,0,EoC,Truphosa (0708175809) Reported To E.o.c At 2018hrs Of Flash Floods Incidents At Mubamba Village In Budalangi Busia County. Four Houses Were Partly Submerged In Water Due To Heavy Rainfalls Experienced In The Area. No One Was Injured As A Results Of The Incident. Krcs Team To Conduct An Assessment To Ascertain The Level Of Damage.
120,05-02-17,Nairobi,Floods,"Embakasi, Eastleigh And Donholm",-1.2939161,36.8971181,3,0,0,0,0,,0,0,0,0,0,0,0,0,0,EoC,"E.o.c Via Media Received Report Of Electrocution Cases In Nairobi At Embakasi, Eastleigh And Donholm After Heavy Downpour In Nairobi, Two Men And A 4 Year Old Boy Died On The Spot And The Scene Was Cleared By Nps Officers. (Brief: 3 Fatalities)"
121,11-12-17,Machakos,Floods,Athi River Machakos,-1.4577245,36.9785033,0,0,0,0,0,0,0,0,0,0,0,0,0,0,0,EoC,"Krcs Joe Mbalu Makueni County Coordinator At 2153hrs Reported Floods At Harvests Flower Farm In Athi River Machakos County, An Adult Male Was Reported To Have Been Trapped After Athi River Burst Bank. Krcs Machakos Rcat Coordinated Response With E.o.c And Managed To Rescue The Man."
122,4/29/2018,Muranga,Floods,Muranga,0,0,0,0,4,0,0,4,0,0,0,0,0,0,0,0,0,EoC,"Gitonga (Krcs Rm) Reported Of Cases Of Land And Mudslides At Kangema And Kinyona Areas In Muranga County 1020hrs. At Least Five Households Were Affected When The Landslide Occurred, 4 People Were Buried Alive. Search And Retrival Operation Ongoing By The Police. Residents In The Landslide Prone Area Have Been Advised To Move Safer Around, Approximately 67 Families Moved. Elsewhere Kiriani  Muranga Road Was Cut Off Following The Heavy Continuous Downpour"
123,4/15/2018,Kiambu,Floods,Limuru Underpass Along Nairobi- Nakuru H,-1.20149,36.76459,0,0,0,0,0,0,0,0,0,0,0,0,0,0,0,EoC,"At 1206hrs, Gitonga (Krcs Central Region) Reported A Stand-Off At Limuru Underpass Following Heavy Rainfall Experienced In The Last 2 Days. Several Vehicles Struck With Passengers Trapped Causing A Tailback In The Busy Highway. The Passengers Have Since Been Evacuated With No Injuries By Kiambu Rcat. The Road Remains Impassable."
124,5/16/2018,Migori,Floods,Migori,-1.0706976,34.4752715,1,0,0,0,0,0,0,0,0,0,0,0,0,0,0,EoC,Simon Via 0722424542 At 2104hrs Reported To Eoc Of Flash Floods Incident In Migori County. River Gucha Reportedly Burst Its Banks Following Heavy Rains Thereby Affecting People Of Nyora Village In Nyatike Sub County. One Person Was Carried Away By The Flash Floods. Area Residents Have Been Advised To Move To Higher Grounds. Krcs Migori Monitoring The Situation
125,4/19/2017,Wajir,Floods,Ajawa Wajir North,1.7488388,40.058633,0,0,0,0,0,500,0,0,0,0,0,0,0,0,0,EoC,"At 1110hrs Abdia (Krcs Wajir) Reported Flash Flood Incident In Wajir Following The Heavy Downpour In The Area, 500 Shoats Were Reported To Have Been Swept Away In Ajawa Wajir North. Rainfall Is Expected To Increase In The Coming Days. (Brief; 500 Shoats)"
126,11-07-17,Tharaka-Nithi,Floods,Mukothima Tharaka Nithi,0.0132728,37.9452585,0,0,0,0,0,45,0,0,0,0,0,0,0,0,0,EoC,"Krcs Rm Gitonga Reported Flood In Mukothima In Tharaka Nithi County At 1546hrs After Heavy Downpour In The Area, 45hh Were Affected As Their Homes Were Submerged. Families Have Been Integrated With Family Friends."
127,4/23/2018,Isiolo,Floods,Oldonyiro Isiolo.,0.6235677,36.9849987,0,0,2,0,0,0,0,0,0,0,0,0,0,0,0,EoC,Talaso (Krcs) Reported To E.o.c At 2020hrs Of A Flash Flood Incident Due To Heavy Rainfall In Isiolo Oldonyiro Sub County. Two Teenagers Of 14 And 16 Years Were Swept Away By The Water. Their Bodies Have Not Yet Been Found. Krcs Team Searching For The Bodies.
128,4/16/2018,Garissa,Floods,Garissa Town,-0.4532293,39.6460988,0,0,0,0,0,0,0,0,0,0,0,0,0,0,0,EoC,Tusmo (Krcs Garissa) Reported Of Flash Floods At Bura And Mororo Areas Following Heavy Rainfall Experienced. Several Households Marooned Causing Movement Impossible In The Area. Krcs Garissa Has Since Been Activated To Conduct An Assessment. Area Residents Were Advised To Move To Higher Grounds
129,4/19/2017,Marsabit,Floods,"Kargi Village, Marsabit",2.4999492,37.5694373,0,0,0,0,0,45,0,0,0,0,0,0,0,0,0,EoC,"Following The Heavy Downpour In Marsabit County, Bombe (Krcs Om) Reported An Incident That Resulted From Heavy Rainfall. Scores Were Rendered Homeless At Kargi Village Following The Heavy Rainfall. Approximately 45 Roofs Of Houses Were Blown Off By Strong Winds. Krcs Team Will Conduct An Assessment Tomorrow. (Brief; 45hhs)"
130,09-05-17,Turkana,Floods,Kainuk Turkana South,1.7765218,35.5028379,0,0,0,0,0,,0,0,0,0,0,0,0,0,0,EoC,"Rukia (Krcs) Reported Of Heavy Rainfall That Caused Havoc At Katilu Ward In Kainuk At 1213hrs. It Has Been Raining Heavily Severally Around The Area, Crops On Seedbeds Were Reportedly Destroyed."
131,05-08-17,Mombasa,Floods,"Pandya, Mombasa",-4.0675199,39.6715926,6,0,0,0,0,,0,0,0,0,0,0,0,0,0,EoC,"E Plus Mombasa Crew Reported A Collapsed Perimeter Wall At Pandya At 1400hrs, The Wall Was Dividing Pandya Hospital And Mbaraki Primary School. Rescue Teams Comprising Of Rcat Mombasa, E Plus, Nps And Dmrt Mombasa Retrieved 6 Bodies From The Debris (1 Female, 1 Male And 4 Juvenile) And The Bodies Taken To Cgh Morgue.   (Brief: 6 Fatalities)"
132,4/15/2018,Narok,Floods,Narok,-1.0875428,35.8770642,0,0,0,0,0,110,0,0,0,0,0,0,0,0,0,EoC,"At 1500hrs, Omondi (Krcs Narok) Notified E.o.c Of Floods At Narok County Following Heavy Rainfall Reported In The Area. A Total Number Of 110 Hhs Have Since Been Affected With 90 Goats And 1 Cow Reportedly Swept Away. The Communities Are Now Camping At Chiefs Camp As The Wait For Water Levels To Reduce."
133,4/25/2018,Baringo,Floods,Baringo,0.8554988,36.0893406,1,0,0,0,0,19,0,0,0,0,0,0,0,0,0,EoC,Lagat (Krcs Baringo) Reported A Drowning Incident At Baringo North. A Middle Aged Man Was Swept Away By Raging Floods Water As He Was Attempting To Cross River Sibilo.  Rapid Assessment Conducted At Salabani Area Indicated That 19 Hhs Had Been Affected.
134,11-08-17,Meru,Floods,Limbine And Muthara Areas Tigania East And W,0.216667,37.8,0,0,0,0,0,60,0,0,0,0,0,0,0,0,0,EoC,"Gitonga Krcs Central Rm Reported At 1230hrs Floods At Limbine And Muthara Areas In Tigania East And West Sub County Meru. One Bridge Was Swept Away, 10 Pit Latrines Collapsed And 60hh Submerged. Krcs Meru And Meru Governor Will Visit The Affected Areas This Afternoon To Offer Humanitarian Support"
135,12/16/2018,Marsabit,Floods,Dukana,4.083333,37.416667,0,0,0,87,0,0,0,0,0,0,0,0,0,0,0,EoC,"At Around 1233hrs, Maurice Krcs Upper Eastern Notified E.o.c Of Flash Floods At Dukana Sub County In Marsabit County Following Heavy Down Pour In Most Parts Of The County. Distribution Of Nfis Was Conducted And 87 Hhs Were Reached."
136,12-06-15,Nandi,Floods,Nandi,0.1835867,35.1268781,0,0,0,0,0,86,0,0,0,0,0,0,0,0,0,EoC,At 1748hrs Talam (County Manager) Reported Flooding Incidents Due To Significant Amounts Of Rainfall Pounded Most Parts Of The County.  Following The Heavy Downpour Reports Were Received That Approximately 2 Households Were Affected By Rock Fall In Chepsangor Area. Flash Floods Were Reported In Chemase Area Of Nandi South. In Kamelil Area There Was Reported A Mud Slide Which Affected 4 Households. Approximately 80 Households Require Evacuation Of Populations To Kamelil Centre Which Is Safer Due To A Risk Of Landslides And Mud Slides. (Brief; 86hhs)
137,3/16/2018,Kajiado,Floods,Kajiado,-1.8420731,36.7918599,0,0,0,0,0,0,0,0,0,0,0,0,0,0,0,EoC,"Various Floods Related Incidents Were Captured At Isinya, Kitengela, Athi River And Kiserian In Kajiado County As From 1030hrs.  A Personal Vehicles Was Swept Away By Raging Floods Along Kajiado- Namanga Road, Two Occupants On Board Managed To Escape Before The Catastrophe. One Middle Aged Man Who Was A Passenger   Was Swept Away In Kiserian On His Way To Work.  The Body Was Retrieved And Taken To The Morgues. In Kisaju Village, Kitengela At Least Eleven People Were Marooned In Their Homes Before The Surface Water Drained Off.  Machakos  Nairobi Was Cut Off At Athi Stone Disrupting The Normal Transport, Motorists Were Advised To Use Alternative Routes. Green Park Estate In Kitengela Is Amongst The Areas That Experienced Flash Floods. Residents Leaving In Lowlands"
138,4/15/2018,Meru,Floods,Nduche River Along Maua  Garbatur,0,0,0,0,1,0,0,0,0,0,0,0,0,0,0,0,0,EoC,"Gitonga (Rm Cental) Reported Flash Flood Incident At Nduche River Along Maua  Garbatura Road. Due To Heavy Rainfall Experienced In Meru, A Lorry Heading From Meru To Garbatura Was Swept Away With People On Board While The Driver Tried To Cross-River Nduche, One Person Trying To Escape Was Swept Away. Rescue Team From Rcat Meru Conducted Search And Rescue."
139,4/27/2019,Kitui,Floods,Mutomo Area Kitui,-1.846384,38.2084547,2,0,0,0,0,0,0,0,0,0,0,0,0,0,0,EoC,"At 0434hrs, Charles Via 0708 418585 Notified E.o.c Of Flash Floods At Mutomo Area In Kitui County. A Personal Vehicle (Probox) With Five People On Board Were Swept By Raging Waters Of River Mweu Due To Heavy Rainfall Experienced In The Area. Three Passengers Managed To Come Out Of The Vehicle Safely While The Other Two Were Swept Downstream. The Two Bodies That Were Missing From Last Night Incident Was Retrieved Today By The Combined
Effort From The Rcat Kitui And Kitui County Government. The Bodies Were Taken To Mutomo
Mortuary By The Nps.."
140,3/19/2018,Homa Bay,Floods,Makongeni Homabay,-0.5216399,34.4649596,3,0,0,0,0,0,0,0,0,0,0,0,0,0,0,EoC,"E.o.c Via Social Media At 1930hrs, Captured Reports Of Flash Flood At Makongeni Homabay County, Three People Died After A Nissan Matatu They Were In Was Swept Away By The Raging Water Into Lake Victoria."
141,1/21/2016,Taita Taveta,Floods,Taita Taveta,-3.3160687,38.4849923,0,0,0,0,0,0,0,0,0,0,0,0,0,0,0,EoC,"At 0830hrs, Nzuga (Krcs Voi) Reported On Rainfall Update In Taita Taveta County. Rainfall Above Average Was Witnessed In The County In The Last Past Few Days, The Level Of Water In Water Bodies Increased And It Led To The Bursting Of River Lumi And Sweeping Of Kiroro Bridge, This Further Led To The Displacement Of 3 Households And Affected 40 Families. A Team Comprising Of Krcs And County Representative From Ministry Of Information Went To Challa To Conduct An Assessment Later Which Will Be Shared. (Brief; 40 Families; 3hhs)"
142,12/16/2015,Kericho,Floods,Kipkelion,-0.207704,35.4480605,0,1,0,0,0,,0,0,0,0,0,0,0,0,0,EoC,"At 1000hrs, Margret (Krcs Kericho) Reported Of Incidents That Were As A Result Of Heavy Rainfall In The Last 24 Hours In Kericho County. Heavy Rainfall Was Received In Most Parts Of The County. In Kipkelion Sub-County, Landslide Was Reported And It Displaced Approximately 176 Families And They Have Settled Temporarily In Kamiwa And Kapkese Primary School, A Total Of 1055 People Have Been Affected And 1 Minor Injury."
143,05-08-17,Mombasa,Floods,Mikindani,-4.0048742,39.6286998,0,0,0,0,0,331,0,0,0,0,0,0,0,0,0,EoC,"E.o.c Received Report From Social Media Of Flood At Mikindani Area In Mombasa, Krcs Team Confirmed The Report And Reported That It Was Due To Poor Drainage In The Area. Coastal Region Rcat Completed Assessments In Mikindani 71hh 180 Pax,Kalahari 27hh 95pax,Mwamlai 45hh 98pax ,Junda Ngmbeni 170hh 681pax ,Mishomoroni Mwisho ( Makumba-Timboni)  18hh 97pax Total 331hh And 1,151 Pax"
144,05-04-18,Nyeri,Floods,Kiaru Village Nyeri,-0.4235367,36.9530903,1,0,0,0,0,15,0,0,0,0,0,0,0,0,0,EoC,"At A 2039hrs, Gitonga (Krcs Central) Reported A Landslide Incident At Kiaru Village, Mukurweni Central In Nyeri County. Following The Heavy Downpour Experienced In The Area, One Person Was Buried Alive.  At Least 15 Families Were Evacuated To Safer Grounds By Nyeri County Rcat Together With Combined Efforts Of Villagers And The Nps. The Body Has Been Retrieved."
145,4/20/2018,Turkana,Floods,Turkana,3.3122477,35.5657862,0,0,0,0,0,300,0,0,0,0,0,0,0,0,0,EoC,"Heavy Rainfall Has Paralyzed Normal Operations In Most Parts Of Turkana County As Reported By Rukia (Krcs Turkana) At 2111hrs. Sections Of Roads In Turkana County Remain Impassable Due To The Continuous Rainfall. The Water Levels Have Increased At Kainuk Bridge, Kalemorok And Kawalase. River Turkwel And Kalawase Broke Its Banks Affecting More Than 300 Families In Lodwar Town And Neighboring Villages. Krcs Turkana To Conduct Assessment."
146,4/22/2018,Wajir,Floods,Buna Wajir,2.7921671,39.5019638,0,0,0,0,0,100,0,0,0,0,0,0,0,0,0,EoC,"At 1421hrs, Abdul (Hakeem Krcs N.e) Reported Floods At Buna Area In Wajir County. Hundred Households Have Been Displaced Besides Property Of Unknown Value Damaged. In Addition, Roads Connecting Wajir To Moyale Have Been Washed Away Hindering Humanitarian Assistance. Krcs N.e In Partnership With County Team Is Mobilizing Fis, Nfis And Means To Sort The Affected Population."
147,3/17/2018,Garissa,Floods,Tusmo (0720328918,-0.4554487,39.640587,0,0,0,0,0,0,0,0,0,0,0,0,0,0,0,EoC,Tusmo (0720328918) Reported To E.o.c Of Flash Floods At Gurufa And Lagdera Sub County In Garissa. Unconfirmed Reports Indicate That One Child Was Swept Away By The Raging Floods. Assessment Is Underway.
148,4/23/2018,Kilifi,Floods,"Garashi, Kilifi",-3.116667,39.883333,0,0,0,0,0,0,0,0,0,0,0,0,0,0,0,EoC,Masoud Krcs Reported Flash Floods At Garashi In Kilifi County At 1514hrs. Rapid Assessment Report Shows 334 Hhs From Garashi Ward Affected With Some Of Them Reportedly Marooned. The Heavy Down Pour Has Also Dilapidated Roads Linking The Area Hindering Humanitarian Response. Krcs In Partnership With Ministry Of Special Programs Planning Air Evacuation For Marooned Hhs Besides Providing Nfis And Fis To The Affected Population
149,4/29/2018,Kisumu,Floods,Kisumu,-0.0917016,34.7679568,0,0,0,0,0,103,0,0,0,0,0,0,0,0,0,EoC,"Several Areas In The Lowland Areas Of Kisumu County Remain Flooded Due To Overflow From The High Land Neighboring Regions. Assesment Conducted By The Response Team Indicated That Approximately 103hhs Were Affected At Kobura And Kathoo Location. The Displaced Persons Are Currently Camping At Kaluore Primary School,As Reported By Hellen ( (Krcs Rm)At  1523hrs"
150,5/27/2018,Baringo,Floods,Near Drowning Incident Baringo South,0.8554988,36.0893406,0,0,0,0,2,0,0,0,0,0,0,0,0,0,0,EoC,E.o.c Via Mainstream Media Captured Reports Of A Near Drowning Incident At Baringo South At 1302hrs. Two Teenagers From Ngambo Location Of Baringo South Were Yesterday Rescued By Villagers After Being Overpowered By Raging Waters As They Attempted To Cross Seasonal River In The Area. Many Roads In The Area Have Since Been Rendered Impassable And Dams Over Spilling With Fears Of New Displacements If Heavy Down Pour Continues.
151,5/19/2016,Muranga,Floods,Murang'a,0,0,1,0,0,0,0,0,0,0,0,0,0,0,0,0,0,EoC,Mbuthia (Krcs Muranga) @ 0830hrs Reported Of A Collapsed Wall Which Killed One Person At Muranga Town Due To The Heavy Downpour Which Is Being Experienced In Most Parts Of The Country. Krcs Rcat Team Assisted In The Recovery Process.(Brief: 1 Fatality)
152,9/20/2016,Bomet,Floods,Maralal,1.0931431,36.7018311,0,0,0,0,0,0,0,0,0,0,0,0,0,0,0,EoC,"E.o.c Received Information Of Flash Floods In Maralal Via Mass Media At 1100hrs, Rcat Team Members Reported That Due To The Heavy Downpour Experienced In Maralal And Poor Drainage In The Area Caused The Floods. No Casualties Or Damaged Property Was Reported From The Incident."
153,3/19/2018,Narok,Floods,Narok Town,-1.0875428,35.8770642,0,0,0,0,0,,0,0,0,0,0,0,0,0,0,EoC,"Omondi (Krcs Narok) Reported Flash Floods At Katakala Center In Narok County At 0410hrs. A 62 Seater Modern Premium Bus Was Swept Away From The Road By Flash Floods .Krcs Rcat Team Responded To The Scene, At Their Arrival They Found All Passengers On Board Were Safe And Reassured Them To Be Calm Till Water Was Subside"
154,11/20/2017,Taita Taveta,Floods,Garsen Taita Taveta,0,0,0,0,0,0,0,,0,0,0,0,0,0,0,0,0,EoC,"At 0625hrs Hassan (0714375854) Reported Of A Flash Flood At Garsen Constituency In Taita Taveta County. Farmers At Mnazini And Kiembeni Constituency Are Affected By Floods And Most Of Their Produce Are Washed Away, There Also Likelihood Of Cholera Outbreak In The Region. Assessments Will Be Conducted By Krcs Taita Taveta To The Affected Area While Community Advised To Move On Higher Grounds."
155,03-04-18,Marsabit,Floods,Marsabit,2.3354966,37.9943453,1,0,0,0,1,0,0,0,0,0,0,0,0,0,0,EoC,Talaso Krcs Upper Eastern Notified E.o.c Of Flood Incident At Saku Sub County In Marsabit At Around 1448hrs. A Middle Aged Woman Was Swept Away By Water While Trying To Cross A Seasonal River With Other One Reportedly Rescued By Locals Following Heaven Down Pour Witnessed In The Area. (
156,3/20/2018,Kakamega,Floods,Mumias East,0.3332218,34.4877423,1,0,0,0,0,0,0,0,0,0,0,0,0,0,0,EoC,"Cyprian (0728597105) Reported Of A Drowning Incident At Mumias East. An Epileptic Man Developed His Condition While Attempting To Cross River Lusumu At 1020hrs. He Slipped Into The River And Was Swept Away, His Body Was Retrieved By The Local Divers"
157,3/19/2018,Kajiado,Floods,Kimana Kajiado,-2.8,37.533333,0,0,0,0,0,0,0,0,0,0,0,0,0,0,0,EoC,Mr. Kipkemei Via 0722849565 Reported Flash Floods At Kimana Area Of Kajiado County At Around 1209hrs. Several People Were Reportedly Seeking Refuge From Trees After Being Marooned By Swollen Orbin River Following Heavy Rains In Loitoktok Area In Kajiado. Rescue Efforts Are Ongoing Facilitated By Kajiado Krcs And County Disaster Team. The Situation Remains Active.
158,5/15/2018,Kajiado,Floods,"River Olkuado, Kajiado",-1.8420731,36.7918599,0,0,0,0,6,0,0,0,0,0,0,0,0,0,0,EoC,Leonard (0716771972) Reported To E.o.c Of Six People Who Were Rescued Yesterday At 2300hrs After Their Car Was Stuck Near River Olkajuado 6km From Namanga Road. One Casually Had Drowned But Was Rescued By The Krcs Kajiado Branch. All The Six Casualties Were Rescued And Evacuated To A Safer Grounds
159,5/13/2018,Migori,Floods,Nyatike Migori,-1.0688838,34.4706101,0,0,0,0,0,0,0,0,0,0,0,0,0,0,0,EoC,"At 1016hrs, Hellen West Kenya Rm Reported Floods At Nyatike Sub County In Migori Following Prolonged Heavy Rainfall In The Country. Modi Secondary School Has Since Been Closed As A Result Of Raging Waters. In Addition, Impassability Of Migori-Sori Road Has Paralyzed Transport In The Area Amid Compromising Humanitarian Response. Krcs Migori Is On Ground In Efforts To Evacuate Vulnerable Families To A Safer Ground."
160,5/23/2017,Kilifi,Floods,"Malindi, Kilifi",-3.623424,39.8497148,0,0,0,0,0,1,0,0,0,0,0,0,0,0,0,EoC,"At 0730hrs Khalfan (Krcs Malindi) Reported Of An Incident That Was As A Result Of Heavy Downpour In Kirao, Majengo.  Following Last Evenings Heavy Downpour A Tree Befell A House, 6 Persons Were Affected. (Brief; 1 Hh)"
161,11-12-17,Marsabit,Floods,Sololo,3.541985,38.658291,0,0,0,0,0,0,0,0,0,0,0,0,0,0,0,EoC,"Talaso Uer Rm Reported To Have Received A Distress Call From Plan International In Nairobi That Their 2 Land Cruiser With Local And Foreign Staff On Board Was Stuck Due To Heavy Downpour Experienced In Marsabit, They Were Trapped At Sololo Sub County. They Are Requesting For Emergency Air Rescue As The Team Have Been Out There For More Than 24hrs."
162,4/25/2018,Kilifi,Floods,Kilifi,-3.5106508,39.9093269,0,0,0,0,8,300,0,0,0,0,0,0,0,0,0,EoC,"Boniface (Krcs Malindi) Reported Of Incidents That Were As A Result Of Heavy Downpour In The Area At 0825hrs. Eight People Were Marooned In Galana And Kuwinda Areas In Kisiki Cha Mzungu. Malindi Rcat Team Responded And Evacuated The Casualty To Safer Grounds. Elsewhere, A Team Conducted Assessment At Malimo Area And Found That 300hhs Have Been Affected. Most Areas Remain Inaccessible As The Roads Have Been Cut Off"
163,4/24/2018,Makueni,Floods,"Ikutha Village, Makueni",-2.0651622,38.1767775,0,0,0,0,4,0,0,0,0,0,0,0,0,0,0,EoC,"At 2136hrs, Caroline Via 0710306502 Reported An Incident Where 4 (I Adult And 3 Children) People Were Marooned At Ikutha Village In Makueni County Following Heavy Downpour. Rescue Efforts Are Ongoing By The Krcs Makueni Team And Well-Wishers. Hundreds Of Other Families Are Reportedly Displaced."
164,10/22/2017,Isiolo,Floods,Merti,1.0611702,38.6660903,0,0,0,0,0,,0,0,0,0,0,0,0,0,0,EoC,"At Around 1130hrs Talaso (Krcs Rm) Reported Of Floods At Isiolo Citing Overflowing Of Ewasso Nyiro River Due To Heavy Down Pour Witnessed The Previous Night. The Surface Water Subsided, No Casualties Reported However About 800 Households Were Affected. Krcs Isiolo Sensitized Affected Community To Be Moving To Higher Grounds Upon Heavy Down Pour.  Need For Nfis Is One Of The Major Requirements By The Affected"
165,12-08-15,Turkana,Floods,Lokichogio,4.2020213,34.3587921,4,0,0,0,0,0,0,0,0,0,0,0,0,0,0,EoC,"Abraham (Krcs Turkana) Reported Of Incidents Caused By Floods In Turkana County At 0820hrs. Heavy Rainfall Was Received In Lodwar And Katilu Areas. Unknown Number Of Animals Were Swept Away And Families Displaced In Katilu.assesment Is Currently Ongoing, To Ascertain The Level Of Damage .A Lorry Was Swept Away By The Raging Waters While It Was Attempting To Cross River Kalawase In Lodwar. Another Incident Was Also Reported In Lokichogio A Private Vehicle Which Had 4passengers Was Swept Away And Unfortunately All Of Them Passed Away."
166,4/23/2018,Kajiado,Floods,Kisaju,-1.6431137,36.8727864,0,0,0,0,0,0,0,0,0,0,0,0,0,0,0,EoC,"At 1318hrs, Leonard Krcs Kajiado Reported Response Progress In Kisaju Area Of Kajiado Earlier Affected By Following Heavy Rainfall. Needs Assessment Facilitated By Kajiado Rcat Recorded 35 Hhs Amounting To 132 People Affected. The Population Is Dire Need Of Temporary Shelter, Fis And Nfis To Assist Them Before Returning To Their Usual Residential. Krcs Team Is Working With The County Government To Restore Normalcy"
167,05-08-16,Baringo,Floods,Baringo,0.8554988,36.0893406,0,0,0,0,0,100,0,0,0,0,0,0,0,0,0,EoC,Flora (Krcs Baringo) Reported Of Floods Incident At Marigat Area That Affected Approximately 100 Hh After River Terkera Burst. Krcs Baringo Together With The County Government Set Up An Evacuation Center For The Displaced Persons. (Brief: Approximately 100 Hh)
168,12/17/2015,Narok,Floods,Ololunga And Mau Areas Of Narok,-1.0167974,35.6095474,1,2,0,0,0,0,0,0,0,0,0,0,0,0,0,EoC,"At 1000hrs, Brenda (Krcs Narok) Reported Of Incidents That Were As A Result Of Heavy Rainfall In The Last 24 Hours In Narok County. Heavy Rainfall Was Received In Ololunga And Mau Yesterday (16th Dec). Following The Heavy Rainfall That Was Received On 15th December, In Majengo Reports Were Received That 2 Vehicles Had Been Submerged In Water. Another Incident Was Reported In Katakala Village Where Lightning Struck A Family House And Killed One Person, 2 People Were Injured And Were Evacuated To Narok Referral Hospital By Well-Wishers."
169,05-09-17,Mombasa,Floods,Sosian Estate,-4.0434771,39.6682065,1,0,0,0,0,0,0,0,0,0,0,0,0,0,0,EoC,E.o.c Received Report Via Social Media Of A Young Boy Body That Was Found Near Naivas Supermarket In Bamburi At Sosian Estate. The Body Was Taken To The Morgue By Nps Officers.
170,4/23/2019,Nairobi,Floods,Silanga Area Kibera,-1.3174839,36.7960879,0,0,0,5,0,0,0,0,0,0,0,0,0,0,0,EoC,"At 1704hrs, Esther Klb Reported To E.o.c Of A Flash Floods Incident At Silanga Area In Kibera. At Least 601 People Were Severely Affected And Displaced By The Floods That Had Pounded The
Area Recently. Two People Drowned,1 Resuscitated Successfully And 1(11years Old) Still Missing."
171,5/15/2018,Kirinyaga,Floods,Marira,-0.6590565,37.3827234,0,0,0,0,0,64,0,0,0,0,0,0,0,0,0,EoC,"Gitonga Rm, At 2224hrs Reported To E.o.c Of Heavy Rainfall That Resulted To Flooding In Marira, Kiangai Ward In Mwea, Kirinyaga County, Approximately 64hh Was Affected By The Flooding Water"
172,12/14/2015,Narok,Floods,Narok,-1.0875428,35.8770642,0,0,0,0,0,0,0,0,0,0,0,0,0,0,0,EoC,"At 0740hrs, Brenda (Krcs Narok) Reported Of Incidents That Were As A Result Of Heavy Rainfall In The County. Heavy Rainfall Was Received In Most Parts Of The County With Mau And Narok North Registering The Highest Amounts Of Rainfall. An 18 Year Old Boy Was Swept By Water In Ololunga Ward, Narok South, The Body Was Retrieved And Taken To The Morgue. Another Incident Of Landslide Was Reported In Kewet Ngaroni, Sogoo Ward And It Damaged 1 Household. (Brief; 1hh)"
173,05-08-16,Bungoma,Floods,Bungoma,0.5695252,34.5583766,0,0,0,0,0,7,0,0,0,0,0,0,0,0,0,EoC,"Wekola (Krcs Bungoma) At 1430 Hrs Reported Of Floods That Rendered 7 Families Homeless.  A Connecting Bridge At Bumula Area Was Cut Off As A Result Of The Heavy Downpour. Krcs Bungoma Response Teams On Ground Conducting An Assessment. (Brief: 7 Hh, 1 Bridge)"
174,04-10-18,Turkana,Floods,Turkana,3.3122477,35.5657862,0,0,0,0,0,236,0,0,0,0,0,0,0,0,0,EoC,Nick Thuo Krcs Turkana Reported Flash Floods In Turkana East And Turkana Central Areas Following Heavy Down Pour Reported Over The Last 2 Days. Initial Assessment Conducted By Turkana Team Indicates 236 Hhs Have Been Affected. The Families Have Lost Their Household Equipments And Shoats. The Assessment Is Still On Going. (Brief: 236hhs Affected)
175,12/19/2015,Narok,Floods,Majengo Area Of Narok.,-1.2860894,36.8425202,1,0,0,0,0,0,0,0,0,0,0,0,0,0,0,EoC,"At 1450hrs, Brenda (Krcs Narok) Reported Of A Drowning Incident Caused By Floods In The County. Heavy Downpour Was Reported In Majengo Area Of Narok County.1 Adult Male Was Reported To Have Been Swept Away By The Raging Waters .Search And Recovery Efforts Are Currently Ongoing However It Is Being Hampered By The Heavy Rainfall In The Area. (Brief; 1 Fatality)"
176,5/18/2018,Kisumu,Floods,"Nyakach, Kisumu",-0.07962,34.7793711,0,0,0,0,0,0,0,0,0,0,0,0,0,0,0,EoC,"At 1951hrs, Hellen (Krcs West Kenya) Reported Of Flash Floods In Nyakach, Kisumu County. River Sondu Miriu Was Full To Its Capacity And Later Burst Its Banks Following Heavy Rains Experienced In The Area Thereby Affecting People Living In Nearby Villages. Krcs Kisumu Evacuated The Affected Persons To The Area Rescue Camps. People Advised To Move To Higher Grounds."
177,12/15/2015,Makueni,Floods,Makueni,-2.2558734,37.8936663,0,0,0,0,0,0,0,0,0,0,0,0,0,0,0,EoC,"At 1000hrs, Joe (Krcs Makueni) Reported Of Incidents That Were As A Result Of Heavy Rainfall In The Last 24 Hours In Makueni County. Heavy Rainfall Was Received In The County In The Last 24 Hours. Kathiani Kanagundo Road Was Yesterday Cut Off Following The Heavy Downpour, Residents Have Been Advised To Use Alternative Routes, And This Is The Kangundo-Mitaboni Road. Another Incident Of A Collapsed Building Was Reported In Mumboni 1 Household Was Affected. In Athi River 520 Households Were Affected In An Informal Settlement Known As Jam City. The Level Of Damage Was However Small; Residents Have Been Advised To Clear Their Drainage Systems. In Another Case, Water Levels In River Athi Are Also Drastically Increasing The Likelihood Of Flooding."
178,4/29/2018,Turkana,Floods,Turkana,3.3122477,35.5657862,0,0,0,0,3,0,0,0,0,0,0,0,0,0,0,EoC,"Nick (Krcs Turkana) Reported Of Incidents That Were As Result Of Heavy Downpour At 1503hrs.  Transport Was Paralyzed In Most Part Of The County, Hindering The Normal Activities. Three People Who Were Marooned At Kainuk Bridge After Their Truck Was Overpowered By Raging Waters While Attempting To Cross Were Rescued By Turkana Rcat Team."
179,05-09-17,Kwale,Floods,Bondeni Kwale,-4.1816115,39.4605612,0,0,0,0,0,0,0,0,0,0,0,0,0,0,0,EoC,"E.o.c Received Report Of Flood At Bondeni In Kwale County After Heavy Downpour Via (Kiwebu 0721923913) At 1158hrs, Several Hh Marooned By Flood Water. Krcs Team Conducting Assessment In The Area."
180,05-05-17,Marsabit,Floods,"Galole, Bori And Onona",2.3354966,37.9943453,0,0,0,0,0,100,0,0,0,0,0,0,0,0,0,EoC,"At 0630hrs Talaso( Krcs Rm) Reported Floods That Occurred In Galole, Bori And Onona  Moyale Sub County Due To Heavy Rainfall. Rcats  Conducted A Brief Assessment And Confirmed That Over 100hh Were Affected."
181,11-07-17,Meru,Floods,Tigania West Twale,0.0514721,37.6456042,0,0,0,0,0,2,0,0,0,0,0,0,0,0,0,EoC,"Steven (0717531096) Reported Floods In Tigania West At Twale Sub Location At 0730hrs After Heavy Downpour Overnight In Meru County, Krcs Meru Responded And Reported 2hh Affected From The Incident And No Casualties"
182,05-06-18,Mandera,Floods,Laga Area Mandera,3.9356389,41.8551162,1,0,0,0,0,0,0,0,0,0,0,0,0,0,0,EoC,"Hassan (0722513659) Reported To E.o.c At 2148hrs Of A Drowning Incident Following Heavy Downpour At Mandera, A Teenager Lost His Life At Around 1600hrs In Laga Area Due To Heavy Rainfall. The Body Was Recovered Tonight At 2000hrs. ("
183,4/29/2018,Meru,Floods,Meru,0.0514721,37.6456042,0,0,0,0,0,0,0,0,0,0,0,0,0,0,0,EoC,At 1420hrs Gitonga (Krcs Rm) Reported That 12 Families Had Been Affected At Thanu Area In Tigania. Flash Floods Reportedly Damaged Most Of Their Household Items. The Families Have Since Then Integrated With Other Communities Members In The Safer Areas.
184,4/18/2018,Kirinyaga,Floods,"Garima, Kirinyaga",-0.6590565,37.3827234,1,0,0,0,0,0,0,0,0,0,0,0,0,0,0,EoC,"At 2117hrs, Gitonga (Krcs Central) Reported Of Cases That Were As Result Of Heavy Downpour. Several Roofs Of Houses Were Blown Off And Households Affected In Garima South, Kirinyaga County. One Person Succumbed To Injuries After Being Cut By An Iron Sheets. Kirinyaga Rcat To Conduct Assessment In The Area"
185,4/22/2018,Turkana,Floods,Turkana,3.3122477,35.5657862,0,0,0,0,6,8,0,0,0,0,0,0,0,0,0,EoC,Rukia (Krcs) Reported To E.o.c At 2045hrs That River Turkwel In Turkana Burst Its Banks Following Heavy Rainfall Experienced In The Area. Approximately 8 Villages Have Been Affected By The Water. Krcs Turkana And The County Government Managed To Rescue 6 Children From The Raging Water.
186,4/23/2018,Makueni,Floods,Nyunzu Area Wote Makueni,-5.9574641,28.0156811,2,0,2,0,0,,0,0,0,0,0,0,0,0,0,EoC,"Muli Krcs Dm Ops Reported Flash Floods At Nyunzu Area Of Makueni County At 1405hrs. Four People Have Died After Being Swept Away By Raging Waters Of A Dam Which Overflowed Yesterday. Two Of Them Have Been Retrieved Dead With 2 Others Missing. Besides, Property Of Unknown Value Has Been Destroyed Following Collapsing And Cracking Of Houses In The Marooned Areas. County Team And Makueni Krcs Are Responding To Affected Population."
187,3/19/2018,Kisumu,Floods,Rae Kisumu,-0.0917016,34.7679568,0,0,0,0,0,0,0,0,0,0,0,0,0,0,0,EoC,"Monicah (0723101673) Reported To E.o.c At 0326hrs Of Flash Flood At Katito Village In Kisumu County, Houses Reported To Have Been Submerged And Families Displaced Along Katito Road Due To High Level Of Water."
188,4/28/2016,Muranga,Floods,Muranga,0,0,0,0,0,0,0,18,0,0,0,0,0,0,0,0,0,EoC,"Rachael (Krcs Muranga) Reported Of An Incident That Occurred Due To Heavy Rainfall. The Central Region Has Been Receiving Heavy Rainfall Since The Onset Of The Long Rains, Last Evening Heavy Rainfall Accompanied By Strong Winds Stormed Heho Village In Kigumo Constituency. Roofs Of 5 Houses Were Blown And A Total Of 18 Families Were Affected."
189,10/21/2017,Turkana,Floods,"Kalimang'arok, Transnzoia",1.0566667,34.9506625,0,0,0,0,14,,0,0,0,0,0,0,0,0,0,EoC,"Rukia Krcs Reported Of Flash Floods At 0200hrs That Involved An Eldoret Express Bus That Was Swept Away By Flash Flood At Lagga  Kalingorok Near Lokichar. 14 Passengers Were On Top Of The Bus And Were Rescued By Excavators By Krcs Turkana, Other 26 Passengers Were Safe. The Surface Water Drained Off After Sometime"
190,12/17/2015,Nakuru,Floods,Nakuru And Molo Areas Of Nakuru,-0.2830309,36.074971,0,0,0,0,0,0,0,0,0,0,0,0,0,0,0,EoC,"At 0906hrs, Sheilah (Krcs Nakuru) Reported Of A Floods Incident In Nakuru County. Significant Amounts Of Rainfall Were Received In The County .Nakuru, Molo Received Very Heavy Rainfall However No Incident Was Reported. In Naivasha Light Showers. The Water Level In River Subukia Have Increased And It Is Prone To Burst If The Rains Increase."
191,4/17/2018,Wajir,Floods,"Korondille , Wajir",1.7488388,40.058633,0,0,0,0,0,690,0,0,0,0,0,0,0,0,0,EoC,"Abdia (Wajir Coordinator) Reported Of Floods At Korondille Area In Wajir Following Heavy Rainfall Experienced Over The Last 2 Weeks. Assessment Done By Wajir Rcat Ascertained That 690 Hhs Have Been Affected In Lesanyu And Milsidedo Villages. Besides, Approximately 20 Goats Died After Being Struck By Lightning Last Night. Krcs Is Mobilizing Nfis And Fis To Donate To The Affected Population"
192,4/19/2017,Wajir,Floods,Ajawa Wajir North,1.7488388,40.058633,0,0,0,0,0,500,0,0,0,0,0,0,0,0,0,EoC,"At 1110hrs Abdia (Krcs Wajir) Reported Flash Flood Incident In Wajir Following The Heavy Downpour In The Area, 500 Shoats Were Reported To Have Been Swept Away In Ajawa Wajir North. Rainfall Is Expected To Increase In The Coming Days. (Brief; 500 Shoats)"
193,2/25/2019,Kisumu,Floods,Nyalendo Village,-0.1266702,34.7575059,0,0,0,26,0,0,0,0,0,0,0,0,0,0,0,EoC,"Esabella Via 0700023440 At 1154hrs Reported To E.o.c Of Flash Flood Incident In Nyalendo, Kisumu County. River Rigwa Reported To Have Break Its Banks, 26hh Reported To Have Been Marooned By Water Leaving The Villagers Homeless. Krcs Kisumu Branch To Provide Nfis To The Affected People, No Injuries Was Reported."
194,06-09-18,Muranga,Floods,Muranga,0,0,0,0,0,0,0,0,0,0,0,0,0,0,0,0,0,EoC,Gitonga (Central Rm) Reported Of Floods In Muranga County Following Heavy Rains Reported In Central Region In Over The Last 2 Day. At Least 54 Houses Have Since Collapsed With Kangema And Kigumo Areas Being The Most Affected. No Injuries And Fatalities Were Reported As A Result
195,11/20/2017,Taita Taveta,Floods,Garsen Taita Taveta,0,0,0,0,0,0,0,,0,0,0,0,0,0,0,0,0,EoC,"At 0625hrs Hassan (0714375854) Reported Of A Flash Flood At Garsen Constituency In Tatita Taveta County. Farmers At Mnazini And Kiembeni Constituency Are Affected By Floods And Most Of Their Produce Are Washed Away, There Also Likelihood Of Cholera Outbreak In The Region. Assessments Will Be Conducted By Krcs Taita Taveta To The Affected Area While Community Advised To Move On Higher Grounds."
196,4/18/2018,Turkana,Floods,Eldume Camp,3.3122477,35.5657862,1,0,0,0,0,0,0,0,0,0,0,0,0,0,0,EoC,One Person Reportedly Succumbed To Pneumonia At Eldume Idp Camp In Baringo. The Case Has Been Tied To Bad Living Conditions At The Camp Plus The Current Cold Weather Brought About By Rains. Children And The Elderly Remain The Most Vulnerable
197,4/15/2018,Turkana,Floods,Kalobeyei Turkana,3.767712,34.6220371,0,4,0,0,0,0,0,0,0,0,0,0,0,0,0,EoC,Kemboi (Krcs North Rift) Reported A Lightning Incident In Kalobeyei Area In Turkana County At 1225hrs.four Children (1 With Critical Injuries And 3 With Minor Injuries) Were Reportedly Hit By A Lightning Due To Heavy Rains Currently Experienced In The Area. Krcs Ambulance Is On Ground In Case Of Further Incidents With North Rift Rcat Making Efforts To Assist The Affected Families
198,4/18/2017,Mandera,Floods,"Ardahalo Village, Mandera",3.9356389,41.8551162,2,0,0,0,0,,0,0,0,0,0,0,0,0,0,EoC,"At 1036hrs Hassan (Krcs Mandera) Reported Of Incident That Was As A Result Of Heavy Downpour In The County. Unknown No Of Livestock Were Swept Away At Ardahalo Village In Takaba, Approximately 40hhs Have Been Affected, 2 Children Were Also Swept Away By The Ravishing Waters. Sar Activity Is Currently Ongoing. (Brief; 2 Fatalities)"
199,04-07-17,Kitui,Floods,"Chainya Yatta, Kitui",-1.3750813,37.9952144,0,0,0,0,15,0,0,0,0,0,0,0,0,0,0,EoC,"Mike Aiyabei Reported A Flood Incident At Chainya In Yatta Sub County At 1017hrs Trapping A Woman And 82 Year Old Man, The Woman Was Rescued By A Group Of Young Men But Unfortunately The Men Were Trapped With The Old Man After Water Level Began To Rise. Rcat Kitui, Rcat Nairobi And Ndoc Rescued 5 At 1700hrs. Sar Ongoing For Another Group Of 10 People Who Are Also Trapped Within The Area. (Brief: 5 Rescued)"
200,05-10-16,Trans Nzoia,Floods,Trans- Nzoia,1.0566667,34.9506625,0,0,0,0,0,55,0,0,0,0,0,0,0,0,0,EoC,"At 0820hrs, E.o.c Through Social Media Captured Reports Of Floods In Wayani Village In Trans  Nzoia. The Water Level In River Sagwani Rose Beyond Its Capacity And Led To Flooding In Namanjala Area. Approximately 55 Households Have Been Affected. (Brief; 55hhs)"
201,2/18/2017,Kisumu,Floods,"Manyatta,Kisumu",-0.0862849,34.7823648,0,0,0,0,0,,0,0,0,0,0,0,0,0,0,EoC,"At 0900hrs E.o.c Via Social Media Received Report Of Floods At Manyatta In Kisumu County After Heavy Downpour Experienced During The Night, Krcs Kisumu Responded To The Scene To Conduct Assessment"
202,12/14/2015,Bungoma,Floods,Bungoma,0.5695252,34.5583766,0,0,0,0,0,0,0,0,0,0,0,0,0,0,0,EoC,"At 0906hrs, Wekola (Krcs Bungoma) Reported Of A Floods Incident In Bungoma County. Following Yesterdays Evening Downpour In Bungoma North (Tongaren) 3 Households Were Reported To Be Affected When River Nzoia Broke Its Banks .Other Areas Remain Wet And In Mt.elgon The Rains Are Currently On Going."
203,12/13/2015,Machakos,Floods,Athi River Area,-1.4577245,36.9785033,0,0,0,0,2,,0,0,0,0,0,0,0,0,0,EoC,"Edgar 0721412977 Reported Floods In Athi River Whereby A Personal Car Was Reported To Have Been Swept Away Near St. Bulevard Athi River At 2300hrs, The 2 Occupants A Father And 2 Yrs Old Son Was Rescued By Kenya Police And Mavoko Fire Brigade."
204,5/14/2018,Kajiado,Floods,Kajiado,-1.8420731,36.7918599,0,0,0,0,0,50,0,0,0,0,0,0,0,0,0,EoC,"Flash Floods Were Reported In Kajiado County At 0802hrs After Heavy Downpour Experienced Overnight, Kajiado Rcat Conducted Assessments Despite Difficulties In Accessing Some Areas And Reported 50hhs Affected And Crops On The Farms Destroyed"
205,5/18/2018,Kiambu,Floods,"Karura, Kiambu",-1.2369447,36.8304718,0,0,0,0,0,0,0,0,0,0,0,0,0,0,0,EoC,"At 2138hrs, Stanley Via 0726340345 Reported Of Flash Floods At Karura In Kiambu County. A Dam In Munyaka Area Burst Its Banks After It Filled To Its Threshold. Krcs Kiambu Is Monitoring The Situation And Advising People Living In The Riverine Area And Downstream To Move To Higher Grounds."
206,01-05-19,Kilifi,Floods,Chakama Malindi,-3.122003,39.632712,0,0,0,0,0,0,0,0,0,0,0,0,0,0,0,EoC,"At 0615hrs, Musa Krcs Reported To E.o.c Of A Heavy Down Pour Accompanied By Strong Winds And Hailstones In Chakama Location. Matolani Primary School And Residential Houses Were Destroyed And Roof Tops Swept Off. Krcs Kilifi Branch Is Out To The Field To Conduct Assessment"
207,4/27/2018,Isiolo,Floods,"Merti, Isiolo",1.0611702,38.6660903,0,0,0,0,0,,0,0,0,0,0,0,0,0,0,EoC,"Flash Floods Were Reported At Merti After River Ewaso Ngiro Bursts Its Banks And Displaced Over 250hhs Mostly Affecting Shauri Yako,Taqwa,Shambole,And Some Part Of Manyatta, Also Crocodiles Reported To Have Been Swept Inland Posing Danger To The Affected Population. Rcat Isiolo To Conduct Assessment. ("
208,5/20/2016,Uasin Gishu,Floods,Eldoret,0.5142775,35.2697802,0,0,0,0,0,23,0,0,0,0,0,0,0,0,0,EoC,"At 0740hrs Helen (Krcs Rm) Reported About The General Outlook Floods In Eldoret Town. Following The Heavy Downpour 16hhs Were Affected By Flashfloods In Roadblock Area, Out Of Which 2 Were Completely Damaged. Seven Families Are Displaced And Are Being Host By Other Community Members. The Area Residents Have Been Advised To Move To Higher Grounds, One Of The Major Reasons Of Flash Floods Is Poor Drainage. Krcs Eldoret Conducted The Assessment. (Brief; 23hhs)"
209,03-10-16,Marsabit,Floods,"Laisamis, North Horr And Sakhu Marsabit",1.5962079,37.8061146,0,0,0,0,0,81,0,0,0,0,0,0,0,0,0,EoC,"At 1246hrs. Talaso (Krcs Marsabit) Reported Heavy Rainfall In Laisamis, North Horr And Sakhu Marsabit County. In Kargi, Laisamis Sub County 81 Households Were Adversely Affected By Flash Floods, In Arapal Livestock And Household Items Were Reported To Have Been Swept Away By Raging Floods.   (Brief; 81hh)"
210,3/17/2018,Kilifi,Floods,Kilifi,-3.5106508,39.9093269,0,0,0,0,0,61,0,0,0,0,0,0,0,0,0,EoC,"Masoud Krcs Kilifi Reported Of Cases Of Flash Floods In Kilifi County At Around 1718hrs. Three Children From Kisiki Cha Mzungu Area Were Swept Away By The Floods After River Sabaki Broke Its Banks. In Addition, 8hh From Garachi, 33 Hhs From Bate, 20hhs From Dangamira And 24 Hectares Of Plantations Were Also Affected. Kilifi Rcat Team Facilitated The Assessment."
211,4/27/2018,Garissa,Floods,Garissa,-0.4532293,39.6460988,0,0,0,0,0,,0,0,0,0,0,0,0,0,0,EoC,"Flash Floods Were Reported In Garissa Due To Water Spillage At Kiambere Dam Affecting Several Hh At Bula Iftin, Bula Punda, Lagbadana And Madogo Area, Rcat Garissa Conducting Sar And Assessment In Affected Areas."
212,03-09-19,Marsabit,Floods,"Kargi, Marsbit",2.4999492,37.5694373,0,43,0,217,0,,0,0,0,0,0,0,0,0,0,EoC,"Maurice Krcs, Reported To E.o.c At 1246hrs Of Several Houses And Institutions In Kargi, Marsabit County. Roofs Was Reported To Have Been Blown Off By Strong Wind And Rain Was Experienced In The Area. Kenya Red Cross Action Team Conducted An  Assessment To Establish The Effects And Humanitarian Needs, Approximately 217hhs Affected And 1302 Persons ."
213,05-11-16,Kiambu,Floods,"Thindigwa Area Limuru, Kiambu",-1.2003,36.83501,0,0,0,0,0,,0,0,0,0,0,0,0,0,0,EoC,Heavy Rainfall Was Experienced In Limuru Thindigwa Area In Kiambu County. Which Led The All Area Flooded. Approximately 20hhs Were Affected.krcs Limuru Brach Will Conduct An Assessment And Share Subsequent Report.
214,4/30/2018,Turkana,Floods,Turkana Flood Incident,3.3122477,35.5657862,0,0,0,0,0,850,0,0,0,0,0,0,0,0,0,EoC,"Nick (Turkana Krcs) Reported Flood Incident At Katilia Center Villages In Turkana County At 1935hrs. Following  Heavy Downpour Approximately 850hh, Loss Of Shoats, Food Stuff And Other Properties Were Affected By The Floods. Turkan Krcs Shall Conduct An Assessment In The Affected Area And Share A Detailed Report."
215,4/22/2018,Kilifi,Floods,Magarini Kilifi,-3.033333,40.066667,0,0,0,0,0,,0,0,0,0,0,0,0,0,0,EoC,Mr. Kateti Via 0716905937 Reported Flash Floods At Karimani Village In Magarini Sub County Kilifi Following Overspill Of Sabaki River At Around 1224hrs. Malindi Krcs Team Has Since Been Activated To Rescue And Conduct Needs Assessment To Several Families Reportedly Marooned.
216,4/16/2018,Mandera,Floods,Tabaka Area Mandera,3.9356389,41.8551162,0,0,0,0,0,5,0,0,0,0,0,0,0,0,0,EoC,"Flash Floods Were Reported At 1345hrs At Takaba Area In Mandera West That Swept A Land Cruiser That Was Crossing To The Other Side With 5 Occupants, They Were All Rescued By Well- Wishers."
217,02-11-16,Machakos,Floods,Athi River,-1.4577245,36.9785033,0,0,0,0,0,9,0,0,0,0,0,0,0,0,0,EoC,At 1425hrs Gideon (Krcs Machakos) Reported Of An Incident That Was Caused By Heavy Downpour In Athi River. Following The Heavy Rainfall In Ngong Hills The Water Lever In River Mto Wa Mawe Increased And Later Broke Leading To Flash Floods In Athi River. Nine People Were Marooned. Krcs Machakos Responded And Evacuated Them To Safer Grounds. (Brief; 9 Marooned)
218,4/18/2018,Kiambu,Floods,Road Traffic Accident Kenyatta University I,-1.1766989,36.9364858,0,2,0,0,0,0,0,0,0,0,0,0,0,0,0,EoC,"At 1123hrs, Eoc Through Social Media Monitoring Captured Reports Of A Road Traffic Accident At Kenyatta University Along Thika Road. A Speeding Personal Car Heading To Town Lost Control And Knocked Down A Motorbike Rider With A Passenger On Board.  Two Casualties  With Minor Injuries  Were Evacuated To The Nearest Hospital By Well-Wishers. Nps Cleared The Scene."
219,11-12-17,Tana River,Floods,Mboka Area Tana River,-0.9628511,39.8698303,0,0,0,0,0,0,0,0,0,0,0,0,0,0,0,EoC,"At Around 1139hrs, Bombe Krcs Tana River County Reported Floods In Boka Area Tana River. Several Shops And Houses Were Affected Owing To Heavy Down Pour Witnessed The Previous Night. Krcs Tana River Team Conducting Assessment To Ascertain Level Of Damage Caused By Floods."
220,05-04-18,Kajiado,Floods,"Rongai, Kajiado",-1.3938636,36.7442377,0,0,7,0,0,0,0,0,0,0,0,0,0,0,0,EoC,Steven Via 0721294516 At 2029hrs Reported An Incident Where 7 People Were Reportedly Swept Away By Raging Waters While Crossing A Bridge At River Kandisi Near Nairobi W Womens Hospital In Ongata Rongai. Search And Rescue Efforts Currently Ongoing.
221,2/20/2018,Laikipia,Floods,Mbombo Village Laikipia,0.3606063,36.7819505,0,0,0,0,0,0,0,0,0,0,0,0,0,0,0,EoC,"Gitonga (Krcs Central) At 1502hrs Reported Of A Lightning Incident At Mbombo Village In Laikipia County.  At Least 13 People Were Were Struck By Lightning  While Attending A Meeting At The Village, 11 People Were Evacuated To Olmoran Dispensary While 2 Others With Critical Injuries Were Evacuated To Nyahururu District Hospital By Krcs Laikipia And Well-Wishers."
222,12-12-15,Nandi,Floods,Nandi,0.1835867,35.1268781,0,2,0,0,0,4,0,0,0,0,0,0,0,0,0,EoC,"At 0830hrs Talam (Krcs Nandi) Reported Of Incident That Were Caused By Heavy Rainfall In The County. Average Rainfall Was Received In Nandi County. In Kibingei Village, Siret Sub-Location An Incident Of Mudslide And Landslide Was Reported, 4 Families Were Affected, However No Injuries Were Reported.another Incident Of Lightning Was Reported In Cheptonon Village, 2 People Were Injured And They Were Evacuated To Maraba Sub-County Hospital. In Aingeptuny Location 2 Foot Bridges Were Swept Away. (Brief; 4hhs)"
223,5/30/2017,Turkana,Floods,Turkana,3.3122477,35.5657862,0,0,0,0,0,,0,0,0,0,0,0,0,0,0,EoC,"E.o.c Received Report Of Flash Floods In Turkana North After River Kawalathe Burst Its Banks Due To Heavy Downpour Experienced In Uganda Highland, Kakuma Lodwar Road Was Affected And Transport Paralysed For The Better Part Of The Day."
224,4/20/2018,Kirinyaga,Floods,South Garima,-0.6590565,37.3827234,0,0,0,0,0,0,0,0,0,0,0,0,0,0,0,EoC,At Least 100hh Were Displaced At South Garima Mwea Ward In Kirinyaga County After Their Houses Roofs Were Blown Off By Strong Wind And Other Homes Flooded. One Person Was Injured By Flying Iron Sheets And Succumbed While Being Referred To Hospital. Rcat Kirinyaga Conducting Assessment.
225,4/16/2018,Meru,Floods,"Gitimbine, Meru",0.0383727,37.6535475,0,0,0,0,0,0,0,0,0,0,0,0,0,0,0,EoC,"Mike (0713712366) Reported Of Flash Floods In Gitimbine Area In Meru County At 1510hrs. At Least 4hhs Were Affected And Several Businesses Marooned With Property Of Unknown Value Destroyed. Krcs Meru Conducted A Rapid Assessment And County Government Unclogged The Drainage Within The Town, Situation Back To Normal As Businessmen Try To Salvage Some Of Their Properties"
226,03-01-18,Samburu,Floods,T Archers Area Ewaso Nyiro River,0.5917706,37.4717903,0,0,0,0,0,0,0,0,0,0,0,0,0,0,0,EoC,Eoc Via Social Media At 0410hrs Captured A Report Of Flash Floods At Ewaso Nyiro River After A Lorry Of Sand Harvesters Were Carried Away By Surprise In The River. The Two Occupants Of The Lorry Were Rescued By Passing People. The Local Chiefs Have Advised The Residents To Move To Higher Areas.krcs Closely Monitoring The Floods Situation.
227,5/13/2018,Nakuru,Floods,"Solai Subukia, Nakurut",-0.2509295,36.1103257,45,0,44,0,0,,0,0,0,0,0,0,0,0,0,EoC,"At 2205hrs A Flash Floods Incident Was Reported At Solai In Subukia Sub County, Nakuru County, Patel Dam In Solai Is Reported To Have Burst Its Banks Due To Heavy Rains Experienced In The Area. The Raging Waters Has Claimed 26 Lives, Injured 41 People And Displaced 500hh, Sar Operation Led By Krcs Team, E Plus Team, County Government Ambulance, Kdf And Nys Managed To Evacuate Casualties To Bahati Sub County Hospital And Nakuru Pgh."
228,5/28/2018,Baringo,Floods,Tiaty Baringo,0.8554988,36.0893406,2,0,0,0,0,0,0,0,0,0,0,0,0,0,0,EoC,"At 1642hrs, E.o.c Via Social Media Captured A Flood Incident At Churo Area In Tiaty Baringo County. Kacheptuya, Kanapus And Chepelow Water Pans Have Since Broken Their Barriers Inviting A Displacement Of Populations In Several Villages Among Them 2 Trading Centers And A Primary School. In Addition, 30 Goats Have Reportedly Been Swept Away And Property Of Unknown Value Marooned. Baringo Krcs Has Since Been Activated To Facilitate Assessment And Assist Displace Populations. Two Women Were Also Swept Away While Crossing  A River."
229,3/17/2018,Kilifi,Floods,Kilifi,-3.5106508,39.9093269,0,0,0,0,0,,0,0,0,0,0,0,0,0,0,EoC,"Bate Area Was Reportedly Marooned And Three Primary Schools (Bate, Mgomani, Dololo And Dagama Dispensary Are Inaccessible). The Roads Have Been Cut Off At Kwasonje, Galeni And Karimboni Areas. Assesment Is Underway"
230,4/23/2018,Garissa,Floods,Garissa Town,-0.4532293,39.6460988,0,0,0,0,0,1313,0,0,0,0,0,0,0,0,0,EoC,Tusmo Krcs Garissa Updated E.o.c Of Response Progress In Garissa County At Around 1035hrs. Assessment Conducted By Garissa Rcat Ascertained 1313 Hhs From 8 Villages Were Affected Following Continued Heavy Rainfall In North Eastern. Krcs In Partnership With County Government Have Since Donated Nfis And Fis To The Affected Population. Assessment Is Still On Going In Other Areas Newly Affected
231,11-08-17,Wajir,Floods,Wajir Town And Ingirir,1.7488388,40.058633,1,0,0,0,0,0,0,0,0,0,0,0,0,0,0,EoC,"At 0900hrs Reported Floods In Wajir Town And Ingirir After Heavy Downpour In The Area, 1 Elderly Lady Drowned In Wajir Town And Several Hh Affected While In Ingirir Several Livestock Were Swept Away While Grazing. Krcs Team To Conduct Assessment."
232,02-09-16,Kajiado,Floods,Loitoktok Simba Cement,-2.924797,37.508143,0,0,0,0,0,,0,0,0,0,0,0,0,0,0,EoC,"Nyaga (0728157168) Reported A Flash Flood Incident In Loitoktok At Simba Cement And The Neighboring Shopping Centre At 1230hrs In Kajiado South, The Perimeter Wall For The Company Was Reported To Have Collapsed And Several Hh Affected And No Casualties Reported From Incident After A Whole Night Downpour. The Affected Families Advised To Seek Temporary Shelter At A Nearby School."
